{
  "source": {
    "dataset": "istat-elenco-comuni",
    "url": "https://www.istat.it/storage/codici-unita-amministrative/Elenco-comuni-italiani.xlsx",
    "sheetName": "CODICI al 31_01_2026",
    "referenceDate": "2026-01-31",
    "syncedAt": "2026-02-25T21:30:52.015Z"
  },
  "centroids": {
    "source": {
      "dataset": "istat-confini-generalizzati",
      "url": "https://www.istat.it/storage/cartografia/confini_amministrativi/generalizzati/2025/Limiti01012025_g.zip",
      "boundaryYear": 2025,
      "syncedAt": "2026-02-25T21:30:52.015Z"
    },
    "coverage": {
      "regions": 20,
      "provinces": 110,
      "comuni": 7895,
      "comuniExactMatches": 7518,
      "comuniLegacyMatches": 377,
      "comuniMissing": 0
    }
  },
  "stats": {
    "regions": 20,
    "provinces": 110,
    "comuni": 7895
  },
  "regions": [
    {
      "istatCode": "01",
      "name": "Piemonte",
      "centroidLat": 45.091969,
      "centroidLng": 8.038892
    },
    {
      "istatCode": "02",
      "name": "Valle d'Aosta/Vallée d'Aoste",
      "centroidLat": 45.726646,
      "centroidLng": 7.454777
    },
    {
      "istatCode": "03",
      "name": "Lombardia",
      "centroidLat": 45.590263,
      "centroidLng": 9.546311
    },
    {
      "istatCode": "04",
      "name": "Trentino-Alto Adige/Südtirol",
      "centroidLat": 46.34346,
      "centroidLng": 11.247673
    },
    {
      "istatCode": "05",
      "name": "Veneto",
      "centroidLat": 45.581918,
      "centroidLng": 11.758621
    },
    {
      "istatCode": "06",
      "name": "Friuli-Venezia Giulia",
      "centroidLat": 46.0847,
      "centroidLng": 13.114451
    },
    {
      "istatCode": "07",
      "name": "Liguria",
      "centroidLat": 44.201474,
      "centroidLng": 8.598051
    },
    {
      "istatCode": "08",
      "name": "Emilia-Romagna",
      "centroidLat": 44.530397,
      "centroidLng": 11.004602
    },
    {
      "istatCode": "09",
      "name": "Toscana",
      "centroidLat": 43.5627,
      "centroidLng": 11.002074
    },
    {
      "istatCode": "10",
      "name": "Umbria",
      "centroidLat": 42.900025,
      "centroidLng": 12.470298
    },
    {
      "istatCode": "11",
      "name": "Marche",
      "centroidLat": 43.323266,
      "centroidLng": 13.239756
    },
    {
      "istatCode": "12",
      "name": "Lazio",
      "centroidLat": 41.964677,
      "centroidLng": 12.902259
    },
    {
      "istatCode": "13",
      "name": "Abruzzo",
      "centroidLat": 42.218618,
      "centroidLng": 13.961983
    },
    {
      "istatCode": "14",
      "name": "Molise",
      "centroidLat": 41.668021,
      "centroidLng": 14.547202
    },
    {
      "istatCode": "15",
      "name": "Campania",
      "centroidLat": 40.872337,
      "centroidLng": 14.734582
    },
    {
      "istatCode": "16",
      "name": "Puglia",
      "centroidLat": 40.710762,
      "centroidLng": 17.123171
    },
    {
      "istatCode": "17",
      "name": "Basilicata",
      "centroidLat": 40.458407,
      "centroidLng": 16.020184
    },
    {
      "istatCode": "18",
      "name": "Calabria",
      "centroidLat": 38.960156,
      "centroidLng": 16.285805
    },
    {
      "istatCode": "19",
      "name": "Sicilia",
      "centroidLat": 37.722493,
      "centroidLng": 14.288718
    },
    {
      "istatCode": "20",
      "name": "Sardegna",
      "centroidLat": 40.006302,
      "centroidLng": 8.971737
    }
  ],
  "provinces": [
    {
      "istatCode": "002",
      "regionIstatCode": "01",
      "name": "Vercelli",
      "sigla": "VC",
      "centroidLat": 45.499432,
      "centroidLng": 8.248004
    },
    {
      "istatCode": "003",
      "regionIstatCode": "01",
      "name": "Novara",
      "sigla": "NO",
      "centroidLat": 45.60665,
      "centroidLng": 8.523559
    },
    {
      "istatCode": "004",
      "regionIstatCode": "01",
      "name": "Cuneo",
      "sigla": "CN",
      "centroidLat": 44.523466,
      "centroidLng": 7.742765
    },
    {
      "istatCode": "005",
      "regionIstatCode": "01",
      "name": "Asti",
      "sigla": "AT",
      "centroidLat": 44.880932,
      "centroidLng": 8.190806
    },
    {
      "istatCode": "006",
      "regionIstatCode": "01",
      "name": "Alessandria",
      "sigla": "AL",
      "centroidLat": 44.846485,
      "centroidLng": 8.642002
    },
    {
      "istatCode": "007",
      "regionIstatCode": "02",
      "name": "Valle d'Aosta/Vallée d'Aoste",
      "sigla": "AO",
      "centroidLat": 45.726646,
      "centroidLng": 7.454777
    },
    {
      "istatCode": "008",
      "regionIstatCode": "07",
      "name": "Imperia",
      "sigla": "IM",
      "centroidLat": 43.928058,
      "centroidLng": 7.845649
    },
    {
      "istatCode": "009",
      "regionIstatCode": "07",
      "name": "Savona",
      "sigla": "SV",
      "centroidLat": 44.228077,
      "centroidLng": 8.251767
    },
    {
      "istatCode": "011",
      "regionIstatCode": "07",
      "name": "La Spezia",
      "sigla": "SP",
      "centroidLat": 44.184602,
      "centroidLng": 9.768166
    },
    {
      "istatCode": "012",
      "regionIstatCode": "03",
      "name": "Varese",
      "sigla": "VA",
      "centroidLat": 45.808858,
      "centroidLng": 8.784774
    },
    {
      "istatCode": "013",
      "regionIstatCode": "03",
      "name": "Como",
      "sigla": "CO",
      "centroidLat": 45.873939,
      "centroidLng": 9.133102
    },
    {
      "istatCode": "014",
      "regionIstatCode": "03",
      "name": "Sondrio",
      "sigla": "SO",
      "centroidLat": 46.215894,
      "centroidLng": 9.780547
    },
    {
      "istatCode": "016",
      "regionIstatCode": "03",
      "name": "Bergamo",
      "sigla": "BG",
      "centroidLat": 45.741557,
      "centroidLng": 9.745832
    },
    {
      "istatCode": "017",
      "regionIstatCode": "03",
      "name": "Brescia",
      "sigla": "BS",
      "centroidLat": 45.642428,
      "centroidLng": 10.259276
    },
    {
      "istatCode": "018",
      "regionIstatCode": "03",
      "name": "Pavia",
      "sigla": "PV",
      "centroidLat": 45.11646,
      "centroidLng": 9.080514
    },
    {
      "istatCode": "019",
      "regionIstatCode": "03",
      "name": "Cremona",
      "sigla": "CR",
      "centroidLat": 45.248894,
      "centroidLng": 9.944583
    },
    {
      "istatCode": "020",
      "regionIstatCode": "03",
      "name": "Mantova",
      "sigla": "MN",
      "centroidLat": 45.13334,
      "centroidLng": 10.743314
    },
    {
      "istatCode": "021",
      "regionIstatCode": "04",
      "name": "Bolzano/Bozen",
      "sigla": "BZ",
      "centroidLat": 46.634583,
      "centroidLng": 11.416743
    },
    {
      "istatCode": "022",
      "regionIstatCode": "04",
      "name": "Trento",
      "sigla": "TN",
      "centroidLat": 46.140024,
      "centroidLng": 11.129527
    },
    {
      "istatCode": "023",
      "regionIstatCode": "05",
      "name": "Verona",
      "sigla": "VR",
      "centroidLat": 45.412714,
      "centroidLng": 11.057953
    },
    {
      "istatCode": "024",
      "regionIstatCode": "05",
      "name": "Vicenza",
      "sigla": "VI",
      "centroidLat": 45.633744,
      "centroidLng": 11.499426
    },
    {
      "istatCode": "025",
      "regionIstatCode": "05",
      "name": "Belluno",
      "sigla": "BL",
      "centroidLat": 46.302724,
      "centroidLng": 12.15131
    },
    {
      "istatCode": "026",
      "regionIstatCode": "05",
      "name": "Treviso",
      "sigla": "TV",
      "centroidLat": 45.799865,
      "centroidLng": 12.215794
    },
    {
      "istatCode": "028",
      "regionIstatCode": "05",
      "name": "Padova",
      "sigla": "PD",
      "centroidLat": 45.350056,
      "centroidLng": 11.80079
    },
    {
      "istatCode": "029",
      "regionIstatCode": "05",
      "name": "Rovigo",
      "sigla": "RO",
      "centroidLat": 45.018925,
      "centroidLng": 11.729024
    },
    {
      "istatCode": "030",
      "regionIstatCode": "06",
      "name": "Udine",
      "sigla": "UD",
      "centroidLat": 46.146834,
      "centroidLng": 13.163139
    },
    {
      "istatCode": "031",
      "regionIstatCode": "06",
      "name": "Gorizia",
      "sigla": "GO",
      "centroidLat": 45.882237,
      "centroidLng": 13.497268
    },
    {
      "istatCode": "032",
      "regionIstatCode": "06",
      "name": "Trieste",
      "sigla": "TS",
      "centroidLat": 45.682992,
      "centroidLng": 13.772072
    },
    {
      "istatCode": "033",
      "regionIstatCode": "08",
      "name": "Piacenza",
      "sigla": "PC",
      "centroidLat": 44.905902,
      "centroidLng": 9.645049
    },
    {
      "istatCode": "034",
      "regionIstatCode": "08",
      "name": "Parma",
      "sigla": "PR",
      "centroidLat": 44.69957,
      "centroidLng": 10.083681
    },
    {
      "istatCode": "035",
      "regionIstatCode": "08",
      "name": "Reggio nell'Emilia",
      "sigla": "RE",
      "centroidLat": 44.68833,
      "centroidLng": 10.596309
    },
    {
      "istatCode": "036",
      "regionIstatCode": "08",
      "name": "Modena",
      "sigla": "MO",
      "centroidLat": 44.549199,
      "centroidLng": 10.900863
    },
    {
      "istatCode": "038",
      "regionIstatCode": "08",
      "name": "Ferrara",
      "sigla": "FE",
      "centroidLat": 44.8056,
      "centroidLng": 11.837582
    },
    {
      "istatCode": "039",
      "regionIstatCode": "08",
      "name": "Ravenna",
      "sigla": "RA",
      "centroidLat": 44.380029,
      "centroidLng": 11.904946
    },
    {
      "istatCode": "040",
      "regionIstatCode": "08",
      "name": "Forlì-Cesena",
      "sigla": "FC",
      "centroidLat": 44.058591,
      "centroidLng": 12.093398
    },
    {
      "istatCode": "041",
      "regionIstatCode": "11",
      "name": "Pesaro e Urbino",
      "sigla": "PU",
      "centroidLat": 43.727047,
      "centroidLng": 12.672711
    },
    {
      "istatCode": "042",
      "regionIstatCode": "11",
      "name": "Ancona",
      "sigla": "AN",
      "centroidLat": 43.525765,
      "centroidLng": 13.215018
    },
    {
      "istatCode": "043",
      "regionIstatCode": "11",
      "name": "Macerata",
      "sigla": "MC",
      "centroidLat": 43.186989,
      "centroidLng": 13.277989
    },
    {
      "istatCode": "044",
      "regionIstatCode": "11",
      "name": "Ascoli Piceno",
      "sigla": "AP",
      "centroidLat": 42.917336,
      "centroidLng": 13.634821
    },
    {
      "istatCode": "045",
      "regionIstatCode": "09",
      "name": "Massa-Carrara",
      "sigla": "MS",
      "centroidLat": 44.23547,
      "centroidLng": 10.013416
    },
    {
      "istatCode": "046",
      "regionIstatCode": "09",
      "name": "Lucca",
      "sigla": "LU",
      "centroidLat": 44.028215,
      "centroidLng": 10.412493
    },
    {
      "istatCode": "047",
      "regionIstatCode": "09",
      "name": "Pistoia",
      "sigla": "PT",
      "centroidLat": 43.916981,
      "centroidLng": 10.830955
    },
    {
      "istatCode": "049",
      "regionIstatCode": "09",
      "name": "Livorno",
      "sigla": "LI",
      "centroidLat": 43.04874,
      "centroidLng": 10.417972
    },
    {
      "istatCode": "050",
      "regionIstatCode": "09",
      "name": "Pisa",
      "sigla": "PI",
      "centroidLat": 43.545657,
      "centroidLng": 10.635119
    },
    {
      "istatCode": "051",
      "regionIstatCode": "09",
      "name": "Arezzo",
      "sigla": "AR",
      "centroidLat": 43.557343,
      "centroidLng": 11.811141
    },
    {
      "istatCode": "052",
      "regionIstatCode": "09",
      "name": "Siena",
      "sigla": "SI",
      "centroidLat": 43.176512,
      "centroidLng": 11.495917
    },
    {
      "istatCode": "053",
      "regionIstatCode": "09",
      "name": "Grosseto",
      "sigla": "GR",
      "centroidLat": 42.791844,
      "centroidLng": 11.263053
    },
    {
      "istatCode": "054",
      "regionIstatCode": "10",
      "name": "Perugia",
      "sigla": "PG",
      "centroidLat": 43.038336,
      "centroidLng": 12.532936
    },
    {
      "istatCode": "055",
      "regionIstatCode": "10",
      "name": "Terni",
      "sigla": "TR",
      "centroidLat": 42.652743,
      "centroidLng": 12.358308
    },
    {
      "istatCode": "056",
      "regionIstatCode": "12",
      "name": "Viterbo",
      "sigla": "VT",
      "centroidLat": 42.432763,
      "centroidLng": 12.074492
    },
    {
      "istatCode": "057",
      "regionIstatCode": "12",
      "name": "Rieti",
      "sigla": "RI",
      "centroidLat": 42.326344,
      "centroidLng": 12.867129
    },
    {
      "istatCode": "059",
      "regionIstatCode": "12",
      "name": "Latina",
      "sigla": "LT",
      "centroidLat": 41.389188,
      "centroidLng": 13.248366
    },
    {
      "istatCode": "060",
      "regionIstatCode": "12",
      "name": "Frosinone",
      "sigla": "FR",
      "centroidLat": 41.601697,
      "centroidLng": 13.566852
    },
    {
      "istatCode": "061",
      "regionIstatCode": "15",
      "name": "Caserta",
      "sigla": "CE",
      "centroidLat": 41.177899,
      "centroidLng": 14.205593
    },
    {
      "istatCode": "062",
      "regionIstatCode": "15",
      "name": "Benevento",
      "sigla": "BN",
      "centroidLat": 41.20277,
      "centroidLng": 14.712385
    },
    {
      "istatCode": "064",
      "regionIstatCode": "15",
      "name": "Avellino",
      "sigla": "AV",
      "centroidLat": 40.970197,
      "centroidLng": 14.966877
    },
    {
      "istatCode": "065",
      "regionIstatCode": "15",
      "name": "Salerno",
      "sigla": "SA",
      "centroidLat": 40.457391,
      "centroidLng": 15.140571
    },
    {
      "istatCode": "066",
      "regionIstatCode": "13",
      "name": "L'Aquila",
      "sigla": "AQ",
      "centroidLat": 42.095221,
      "centroidLng": 13.637335
    },
    {
      "istatCode": "067",
      "regionIstatCode": "13",
      "name": "Teramo",
      "sigla": "TE",
      "centroidLat": 42.660181,
      "centroidLng": 13.777321
    },
    {
      "istatCode": "068",
      "regionIstatCode": "13",
      "name": "Pescara",
      "sigla": "PE",
      "centroidLat": 42.3229,
      "centroidLng": 13.976835
    },
    {
      "istatCode": "069",
      "regionIstatCode": "13",
      "name": "Chieti",
      "sigla": "CH",
      "centroidLat": 42.101083,
      "centroidLng": 14.376002
    },
    {
      "istatCode": "070",
      "regionIstatCode": "14",
      "name": "Campobasso",
      "sigla": "CB",
      "centroidLat": 41.682394,
      "centroidLng": 14.735322
    },
    {
      "istatCode": "071",
      "regionIstatCode": "16",
      "name": "Foggia",
      "sigla": "FG",
      "centroidLat": 41.526077,
      "centroidLng": 15.46125
    },
    {
      "istatCode": "073",
      "regionIstatCode": "16",
      "name": "Taranto",
      "sigla": "TA",
      "centroidLat": 40.485997,
      "centroidLng": 17.306829
    },
    {
      "istatCode": "074",
      "regionIstatCode": "16",
      "name": "Brindisi",
      "sigla": "BR",
      "centroidLat": 40.575008,
      "centroidLng": 17.712859
    },
    {
      "istatCode": "075",
      "regionIstatCode": "16",
      "name": "Lecce",
      "sigla": "LE",
      "centroidLat": 40.127038,
      "centroidLng": 18.221612
    },
    {
      "istatCode": "076",
      "regionIstatCode": "17",
      "name": "Potenza",
      "sigla": "PZ",
      "centroidLat": 40.47065,
      "centroidLng": 15.899542
    },
    {
      "istatCode": "077",
      "regionIstatCode": "17",
      "name": "Matera",
      "sigla": "MT",
      "centroidLat": 40.418914,
      "centroidLng": 16.409352
    },
    {
      "istatCode": "078",
      "regionIstatCode": "18",
      "name": "Cosenza",
      "sigla": "CS",
      "centroidLat": 39.522807,
      "centroidLng": 16.261312
    },
    {
      "istatCode": "079",
      "regionIstatCode": "18",
      "name": "Catanzaro",
      "sigla": "CZ",
      "centroidLat": 38.872713,
      "centroidLng": 16.485355
    },
    {
      "istatCode": "081",
      "regionIstatCode": "19",
      "name": "Trapani",
      "sigla": "TP",
      "centroidLat": 37.826891,
      "centroidLng": 12.710453
    },
    {
      "istatCode": "084",
      "regionIstatCode": "19",
      "name": "Agrigento",
      "sigla": "AG",
      "centroidLat": 37.406569,
      "centroidLng": 13.484424
    },
    {
      "istatCode": "085",
      "regionIstatCode": "19",
      "name": "Caltanissetta",
      "sigla": "CL",
      "centroidLat": 37.446049,
      "centroidLng": 13.95078
    },
    {
      "istatCode": "086",
      "regionIstatCode": "19",
      "name": "Enna",
      "sigla": "EN",
      "centroidLat": 37.599609,
      "centroidLng": 14.426226
    },
    {
      "istatCode": "088",
      "regionIstatCode": "19",
      "name": "Ragusa",
      "sigla": "RG",
      "centroidLat": 36.914448,
      "centroidLng": 14.68577
    },
    {
      "istatCode": "089",
      "regionIstatCode": "19",
      "name": "Siracusa",
      "sigla": "SR",
      "centroidLat": 37.068927,
      "centroidLng": 15.027378
    },
    {
      "istatCode": "093",
      "regionIstatCode": "06",
      "name": "Pordenone",
      "sigla": "PN",
      "centroidLat": 46.067618,
      "centroidLng": 12.713643
    },
    {
      "istatCode": "094",
      "regionIstatCode": "14",
      "name": "Isernia",
      "sigla": "IS",
      "centroidLat": 41.644803,
      "centroidLng": 14.243317
    },
    {
      "istatCode": "096",
      "regionIstatCode": "01",
      "name": "Biella",
      "sigla": "BI",
      "centroidLat": 45.578495,
      "centroidLng": 8.092159
    },
    {
      "istatCode": "097",
      "regionIstatCode": "03",
      "name": "Lecco",
      "sigla": "LC",
      "centroidLat": 45.844265,
      "centroidLng": 9.373874
    },
    {
      "istatCode": "098",
      "regionIstatCode": "03",
      "name": "Lodi",
      "sigla": "LO",
      "centroidLat": 45.243283,
      "centroidLng": 9.558945
    },
    {
      "istatCode": "099",
      "regionIstatCode": "08",
      "name": "Rimini",
      "sigla": "RN",
      "centroidLat": 43.924179,
      "centroidLng": 12.494092
    },
    {
      "istatCode": "100",
      "regionIstatCode": "09",
      "name": "Prato",
      "sigla": "PO",
      "centroidLat": 43.924648,
      "centroidLng": 11.083484
    },
    {
      "istatCode": "101",
      "regionIstatCode": "18",
      "name": "Crotone",
      "sigla": "KR",
      "centroidLat": 39.217428,
      "centroidLng": 16.933566
    },
    {
      "istatCode": "102",
      "regionIstatCode": "18",
      "name": "Vibo Valentia",
      "sigla": "VV",
      "centroidLat": 38.630359,
      "centroidLng": 16.144225
    },
    {
      "istatCode": "103",
      "regionIstatCode": "01",
      "name": "Verbano-Cusio-Ossola",
      "sigla": "VB",
      "centroidLat": 46.022538,
      "centroidLng": 8.396164
    },
    {
      "istatCode": "108",
      "regionIstatCode": "03",
      "name": "Monza e della Brianza",
      "sigla": "MB",
      "centroidLat": 45.636075,
      "centroidLng": 9.278556
    },
    {
      "istatCode": "109",
      "regionIstatCode": "11",
      "name": "Fermo",
      "sigla": "FM",
      "centroidLat": 43.102875,
      "centroidLng": 13.599131
    },
    {
      "istatCode": "110",
      "regionIstatCode": "16",
      "name": "Barletta-Andria-Trani",
      "sigla": "BT",
      "centroidLat": 41.214249,
      "centroidLng": 16.178726
    },
    {
      "istatCode": "113",
      "regionIstatCode": "20",
      "name": "Gallura Nord-Est Sardegna",
      "sigla": "OT",
      "centroidLat": 40.920397,
      "centroidLng": 9.291228
    },
    {
      "istatCode": "114",
      "regionIstatCode": "20",
      "name": "Nuoro",
      "sigla": "NU",
      "centroidLat": 40.248641,
      "centroidLng": 9.220453
    },
    {
      "istatCode": "115",
      "regionIstatCode": "20",
      "name": "Oristano",
      "sigla": "OR",
      "centroidLat": 39.966784,
      "centroidLng": 8.744716
    },
    {
      "istatCode": "116",
      "regionIstatCode": "20",
      "name": "Ogliastra",
      "sigla": "OG",
      "centroidLat": 39.873405,
      "centroidLng": 9.548796
    },
    {
      "istatCode": "117",
      "regionIstatCode": "20",
      "name": "Medio Campidano",
      "sigla": "VS",
      "centroidLat": 39.614061,
      "centroidLng": 8.872317
    },
    {
      "istatCode": "119",
      "regionIstatCode": "20",
      "name": "Sulcis Iglesiente",
      "sigla": "CI",
      "centroidLat": 39.168057,
      "centroidLng": 8.57069
    },
    {
      "istatCode": "201",
      "regionIstatCode": "01",
      "name": "Torino",
      "sigla": "TO",
      "centroidLat": 45.181593,
      "centroidLng": 7.567402
    },
    {
      "istatCode": "210",
      "regionIstatCode": "07",
      "name": "Genova",
      "sigla": "GE",
      "centroidLat": 44.45147,
      "centroidLng": 9.136982
    },
    {
      "istatCode": "215",
      "regionIstatCode": "03",
      "name": "Milano",
      "sigla": "MI",
      "centroidLat": 45.476725,
      "centroidLng": 9.126617
    },
    {
      "istatCode": "227",
      "regionIstatCode": "05",
      "name": "Venezia",
      "sigla": "VE",
      "centroidLat": 45.549148,
      "centroidLng": 12.409523
    },
    {
      "istatCode": "237",
      "regionIstatCode": "08",
      "name": "Bologna",
      "sigla": "BO",
      "centroidLat": 44.443407,
      "centroidLng": 11.341057
    },
    {
      "istatCode": "248",
      "regionIstatCode": "09",
      "name": "Firenze",
      "sigla": "FI",
      "centroidLat": 43.788818,
      "centroidLng": 11.247754
    },
    {
      "istatCode": "258",
      "regionIstatCode": "12",
      "name": "Roma",
      "sigla": "RM",
      "centroidLat": 41.94431,
      "centroidLng": 12.739705
    },
    {
      "istatCode": "263",
      "regionIstatCode": "15",
      "name": "Napoli",
      "sigla": "NA",
      "centroidLat": 40.833877,
      "centroidLng": 14.356204
    },
    {
      "istatCode": "272",
      "regionIstatCode": "16",
      "name": "Bari",
      "sigla": "BA",
      "centroidLat": 40.966899,
      "centroidLng": 16.836624
    },
    {
      "istatCode": "280",
      "regionIstatCode": "18",
      "name": "Reggio Calabria",
      "sigla": "RC",
      "centroidLat": 38.260582,
      "centroidLng": 16.051779
    },
    {
      "istatCode": "282",
      "regionIstatCode": "19",
      "name": "Palermo",
      "sigla": "PA",
      "centroidLat": 37.92147,
      "centroidLng": 13.559178
    },
    {
      "istatCode": "283",
      "regionIstatCode": "19",
      "name": "Messina",
      "sigla": "ME",
      "centroidLat": 38.054289,
      "centroidLng": 15.035231
    },
    {
      "istatCode": "287",
      "regionIstatCode": "19",
      "name": "Catania",
      "sigla": "CT",
      "centroidLat": 37.563627,
      "centroidLng": 14.937825
    },
    {
      "istatCode": "312",
      "regionIstatCode": "20",
      "name": "Sassari",
      "sigla": "SS",
      "centroidLat": 40.620281,
      "centroidLng": 8.744805
    },
    {
      "istatCode": "318",
      "regionIstatCode": "20",
      "name": "Cagliari",
      "sigla": "CA",
      "centroidLat": 39.44148,
      "centroidLng": 9.148536
    }
  ],
  "comuni": [
    {
      "istatCode": "001001",
      "regionIstatCode": "01",
      "provinceIstatCode": "201",
      "name": "Agliè",
      "codeCatastale": "A074",
      "legacyIstatCode107": "001001",
      "centroidLat": 45.366122,
      "centroidLng": 7.776115
    },
    {
      "istatCode": "001002",
      "regionIstatCode": "01",
      "provinceIstatCode": "201",
      "name": "Airasca",
      "codeCatastale": "A109",
      "legacyIstatCode107": "001002",
      "centroidLat": 44.921741,
      "centroidLng": 7.483241
    },
    {
      "istatCode": "001003",
      "regionIstatCode": "01",
      "provinceIstatCode": "201",
      "name": "Ala di Stura",
      "codeCatastale": "A117",
      "legacyIstatCode107": "001003",
      "centroidLat": 45.306906,
      "centroidLng": 7.282076
    },
    {
      "istatCode": "001004",
      "regionIstatCode": "01",
      "provinceIstatCode": "201",
      "name": "Albiano d'Ivrea",
      "codeCatastale": "A157",
      "legacyIstatCode107": "001004",
      "centroidLat": 45.431767,
      "centroidLng": 7.943832
    },
    {
      "istatCode": "001006",
      "regionIstatCode": "01",
      "provinceIstatCode": "201",
      "name": "Almese",
      "codeCatastale": "A218",
      "legacyIstatCode107": "001006",
      "centroidLat": 45.118247,
      "centroidLng": 7.419993
    },
    {
      "istatCode": "001007",
      "regionIstatCode": "01",
      "provinceIstatCode": "201",
      "name": "Alpette",
      "codeCatastale": "A221",
      "legacyIstatCode107": "001007",
      "centroidLat": 45.406465,
      "centroidLng": 7.576845
    },
    {
      "istatCode": "001008",
      "regionIstatCode": "01",
      "provinceIstatCode": "201",
      "name": "Alpignano",
      "codeCatastale": "A222",
      "legacyIstatCode107": "001008",
      "centroidLat": 45.101227,
      "centroidLng": 7.51688
    },
    {
      "istatCode": "001009",
      "regionIstatCode": "01",
      "provinceIstatCode": "201",
      "name": "Andezeno",
      "codeCatastale": "A275",
      "legacyIstatCode107": "001009",
      "centroidLat": 45.035833,
      "centroidLng": 7.866209
    },
    {
      "istatCode": "001010",
      "regionIstatCode": "01",
      "provinceIstatCode": "201",
      "name": "Andrate",
      "codeCatastale": "A282",
      "legacyIstatCode107": "001010",
      "centroidLat": 45.546262,
      "centroidLng": 7.885957
    },
    {
      "istatCode": "001011",
      "regionIstatCode": "01",
      "provinceIstatCode": "201",
      "name": "Angrogna",
      "codeCatastale": "A295",
      "legacyIstatCode107": "001011",
      "centroidLat": 44.86086,
      "centroidLng": 7.177055
    },
    {
      "istatCode": "001012",
      "regionIstatCode": "01",
      "provinceIstatCode": "201",
      "name": "Arignano",
      "codeCatastale": "A405",
      "legacyIstatCode107": "001012",
      "centroidLat": 45.03808,
      "centroidLng": 7.898708
    },
    {
      "istatCode": "001013",
      "regionIstatCode": "01",
      "provinceIstatCode": "201",
      "name": "Avigliana",
      "codeCatastale": "A518",
      "legacyIstatCode107": "001013",
      "centroidLat": 45.075084,
      "centroidLng": 7.392224
    },
    {
      "istatCode": "001014",
      "regionIstatCode": "01",
      "provinceIstatCode": "201",
      "name": "Azeglio",
      "codeCatastale": "A525",
      "legacyIstatCode107": "001014",
      "centroidLat": 45.422428,
      "centroidLng": 7.993078
    },
    {
      "istatCode": "001015",
      "regionIstatCode": "01",
      "provinceIstatCode": "201",
      "name": "Bairo",
      "codeCatastale": "A584",
      "legacyIstatCode107": "001015",
      "centroidLat": 45.37667,
      "centroidLng": 7.747789
    },
    {
      "istatCode": "001016",
      "regionIstatCode": "01",
      "provinceIstatCode": "201",
      "name": "Balangero",
      "codeCatastale": "A587",
      "legacyIstatCode107": "001016",
      "centroidLat": 45.276951,
      "centroidLng": 7.51946
    },
    {
      "istatCode": "001017",
      "regionIstatCode": "01",
      "provinceIstatCode": "201",
      "name": "Baldissero Canavese",
      "codeCatastale": "A590",
      "legacyIstatCode107": "001017",
      "centroidLat": 45.406306,
      "centroidLng": 7.744933
    },
    {
      "istatCode": "001018",
      "regionIstatCode": "01",
      "provinceIstatCode": "201",
      "name": "Baldissero Torinese",
      "codeCatastale": "A591",
      "legacyIstatCode107": "001018",
      "centroidLat": 45.069787,
      "centroidLng": 7.804652
    },
    {
      "istatCode": "001019",
      "regionIstatCode": "01",
      "provinceIstatCode": "201",
      "name": "Balme",
      "codeCatastale": "A599",
      "legacyIstatCode107": "001019",
      "centroidLat": 45.299949,
      "centroidLng": 7.187083
    },
    {
      "istatCode": "001020",
      "regionIstatCode": "01",
      "provinceIstatCode": "201",
      "name": "Banchette",
      "codeCatastale": "A607",
      "legacyIstatCode107": "001020",
      "centroidLat": 45.458546,
      "centroidLng": 7.854724
    },
    {
      "istatCode": "001021",
      "regionIstatCode": "01",
      "provinceIstatCode": "201",
      "name": "Barbania",
      "codeCatastale": "A625",
      "legacyIstatCode107": "001021",
      "centroidLat": 45.294361,
      "centroidLng": 7.620618
    },
    {
      "istatCode": "001022",
      "regionIstatCode": "01",
      "provinceIstatCode": "201",
      "name": "Bardonecchia",
      "codeCatastale": "A651",
      "legacyIstatCode107": "001022",
      "centroidLat": 45.100809,
      "centroidLng": 6.731148
    },
    {
      "istatCode": "001023",
      "regionIstatCode": "01",
      "provinceIstatCode": "201",
      "name": "Barone Canavese",
      "codeCatastale": "A673",
      "legacyIstatCode107": "001023",
      "centroidLat": 45.318471,
      "centroidLng": 7.86584
    },
    {
      "istatCode": "001024",
      "regionIstatCode": "01",
      "provinceIstatCode": "201",
      "name": "Beinasco",
      "codeCatastale": "A734",
      "legacyIstatCode107": "001024",
      "centroidLat": 45.016512,
      "centroidLng": 7.590375
    },
    {
      "istatCode": "001025",
      "regionIstatCode": "01",
      "provinceIstatCode": "201",
      "name": "Bibiana",
      "codeCatastale": "A853",
      "legacyIstatCode107": "001025",
      "centroidLat": 44.788027,
      "centroidLng": 7.283515
    },
    {
      "istatCode": "001026",
      "regionIstatCode": "01",
      "provinceIstatCode": "201",
      "name": "Bobbio Pellice",
      "codeCatastale": "A910",
      "legacyIstatCode107": "001026",
      "centroidLat": 44.78451,
      "centroidLng": 7.066494
    },
    {
      "istatCode": "001027",
      "regionIstatCode": "01",
      "provinceIstatCode": "201",
      "name": "Bollengo",
      "codeCatastale": "A941",
      "legacyIstatCode107": "001027",
      "centroidLat": 45.466465,
      "centroidLng": 7.9488
    },
    {
      "istatCode": "001028",
      "regionIstatCode": "01",
      "provinceIstatCode": "201",
      "name": "Borgaro Torinese",
      "codeCatastale": "A990",
      "legacyIstatCode107": "001028",
      "centroidLat": 45.146985,
      "centroidLng": 7.663111
    },
    {
      "istatCode": "001029",
      "regionIstatCode": "01",
      "provinceIstatCode": "201",
      "name": "Borgiallo",
      "codeCatastale": "B003",
      "legacyIstatCode107": "001029",
      "centroidLat": 45.42801,
      "centroidLng": 7.659507
    },
    {
      "istatCode": "001030",
      "regionIstatCode": "01",
      "provinceIstatCode": "201",
      "name": "Borgofranco d'Ivrea",
      "codeCatastale": "B015",
      "legacyIstatCode107": "001030",
      "centroidLat": 45.51416,
      "centroidLng": 7.850264
    },
    {
      "istatCode": "001031",
      "regionIstatCode": "01",
      "provinceIstatCode": "201",
      "name": "Borgomasino",
      "codeCatastale": "B021",
      "legacyIstatCode107": "001031",
      "centroidLat": 45.362635,
      "centroidLng": 7.980326
    },
    {
      "istatCode": "001032",
      "regionIstatCode": "01",
      "provinceIstatCode": "201",
      "name": "Borgone Susa",
      "codeCatastale": "B024",
      "legacyIstatCode107": "001032",
      "centroidLat": 45.121745,
      "centroidLng": 7.245135
    },
    {
      "istatCode": "001033",
      "regionIstatCode": "01",
      "provinceIstatCode": "201",
      "name": "Bosconero",
      "codeCatastale": "B075",
      "legacyIstatCode107": "001033",
      "centroidLat": 45.269759,
      "centroidLng": 7.767542
    },
    {
      "istatCode": "001034",
      "regionIstatCode": "01",
      "provinceIstatCode": "201",
      "name": "Brandizzo",
      "codeCatastale": "B121",
      "legacyIstatCode107": "001034",
      "centroidLat": 45.173572,
      "centroidLng": 7.834373
    },
    {
      "istatCode": "001035",
      "regionIstatCode": "01",
      "provinceIstatCode": "201",
      "name": "Bricherasio",
      "codeCatastale": "B171",
      "legacyIstatCode107": "001035",
      "centroidLat": 44.832441,
      "centroidLng": 7.297929
    },
    {
      "istatCode": "001036",
      "regionIstatCode": "01",
      "provinceIstatCode": "201",
      "name": "Brosso",
      "codeCatastale": "B205",
      "legacyIstatCode107": "001036",
      "centroidLat": 45.511212,
      "centroidLng": 7.798225
    },
    {
      "istatCode": "001037",
      "regionIstatCode": "01",
      "provinceIstatCode": "201",
      "name": "Brozolo",
      "codeCatastale": "B209",
      "legacyIstatCode107": "001037",
      "centroidLat": 45.114392,
      "centroidLng": 8.069574
    },
    {
      "istatCode": "001038",
      "regionIstatCode": "01",
      "provinceIstatCode": "201",
      "name": "Bruino",
      "codeCatastale": "B216",
      "legacyIstatCode107": "001038",
      "centroidLat": 45.014121,
      "centroidLng": 7.474432
    },
    {
      "istatCode": "001039",
      "regionIstatCode": "01",
      "provinceIstatCode": "201",
      "name": "Brusasco",
      "codeCatastale": "B225",
      "legacyIstatCode107": "001039",
      "centroidLat": 45.151671,
      "centroidLng": 8.062089
    },
    {
      "istatCode": "001040",
      "regionIstatCode": "01",
      "provinceIstatCode": "201",
      "name": "Bruzolo",
      "codeCatastale": "B232",
      "legacyIstatCode107": "001040",
      "centroidLat": 45.158508,
      "centroidLng": 7.198779
    },
    {
      "istatCode": "001041",
      "regionIstatCode": "01",
      "provinceIstatCode": "201",
      "name": "Buriasco",
      "codeCatastale": "B278",
      "legacyIstatCode107": "001041",
      "centroidLat": 44.874549,
      "centroidLng": 7.424237
    },
    {
      "istatCode": "001042",
      "regionIstatCode": "01",
      "provinceIstatCode": "201",
      "name": "Burolo",
      "codeCatastale": "B279",
      "legacyIstatCode107": "001042",
      "centroidLat": 45.484287,
      "centroidLng": 7.92688
    },
    {
      "istatCode": "001043",
      "regionIstatCode": "01",
      "provinceIstatCode": "201",
      "name": "Busano",
      "codeCatastale": "B284",
      "legacyIstatCode107": "001043",
      "centroidLat": 45.322386,
      "centroidLng": 7.661003
    },
    {
      "istatCode": "001044",
      "regionIstatCode": "01",
      "provinceIstatCode": "201",
      "name": "Bussoleno",
      "codeCatastale": "B297",
      "legacyIstatCode107": "001044",
      "centroidLat": 45.131297,
      "centroidLng": 7.136543
    },
    {
      "istatCode": "001045",
      "regionIstatCode": "01",
      "provinceIstatCode": "201",
      "name": "Buttigliera Alta",
      "codeCatastale": "B305",
      "legacyIstatCode107": "001045",
      "centroidLat": 45.073608,
      "centroidLng": 7.43527
    },
    {
      "istatCode": "001046",
      "regionIstatCode": "01",
      "provinceIstatCode": "201",
      "name": "Cafasse",
      "codeCatastale": "B350",
      "legacyIstatCode107": "001046",
      "centroidLat": 45.24423,
      "centroidLng": 7.507997
    },
    {
      "istatCode": "001047",
      "regionIstatCode": "01",
      "provinceIstatCode": "201",
      "name": "Caluso",
      "codeCatastale": "B435",
      "legacyIstatCode107": "001047",
      "centroidLat": 45.281257,
      "centroidLng": 7.882716
    },
    {
      "istatCode": "001048",
      "regionIstatCode": "01",
      "provinceIstatCode": "201",
      "name": "Cambiano",
      "codeCatastale": "B462",
      "legacyIstatCode107": "001048",
      "centroidLat": 44.969476,
      "centroidLng": 7.765544
    },
    {
      "istatCode": "001049",
      "regionIstatCode": "01",
      "provinceIstatCode": "201",
      "name": "Campiglione Fenile",
      "codeCatastale": "B512",
      "legacyIstatCode107": "001049",
      "centroidLat": 44.804781,
      "centroidLng": 7.32725
    },
    {
      "istatCode": "001050",
      "regionIstatCode": "01",
      "provinceIstatCode": "201",
      "name": "Candia Canavese",
      "codeCatastale": "B588",
      "legacyIstatCode107": "001050",
      "centroidLat": 45.330254,
      "centroidLng": 7.897191
    },
    {
      "istatCode": "001051",
      "regionIstatCode": "01",
      "provinceIstatCode": "201",
      "name": "Candiolo",
      "codeCatastale": "B592",
      "legacyIstatCode107": "001051",
      "centroidLat": 44.963738,
      "centroidLng": 7.578368
    },
    {
      "istatCode": "001052",
      "regionIstatCode": "01",
      "provinceIstatCode": "201",
      "name": "Canischio",
      "codeCatastale": "B605",
      "legacyIstatCode107": "001052",
      "centroidLat": 45.380514,
      "centroidLng": 7.57761
    },
    {
      "istatCode": "001053",
      "regionIstatCode": "01",
      "provinceIstatCode": "201",
      "name": "Cantalupa",
      "codeCatastale": "B628",
      "legacyIstatCode107": "001053",
      "centroidLat": 44.951654,
      "centroidLng": 7.332815
    },
    {
      "istatCode": "001054",
      "regionIstatCode": "01",
      "provinceIstatCode": "201",
      "name": "Cantoira",
      "codeCatastale": "B637",
      "legacyIstatCode107": "001054",
      "centroidLat": 45.350744,
      "centroidLng": 7.387959
    },
    {
      "istatCode": "001055",
      "regionIstatCode": "01",
      "provinceIstatCode": "201",
      "name": "Caprie",
      "codeCatastale": "B705",
      "legacyIstatCode107": "001055",
      "centroidLat": 45.133735,
      "centroidLng": 7.340675
    },
    {
      "istatCode": "001056",
      "regionIstatCode": "01",
      "provinceIstatCode": "201",
      "name": "Caravino",
      "codeCatastale": "B733",
      "legacyIstatCode107": "001056",
      "centroidLat": 45.399445,
      "centroidLng": 7.960896
    },
    {
      "istatCode": "001057",
      "regionIstatCode": "01",
      "provinceIstatCode": "201",
      "name": "Carema",
      "codeCatastale": "B762",
      "legacyIstatCode107": "001057",
      "centroidLat": 45.585657,
      "centroidLng": 7.830586
    },
    {
      "istatCode": "001058",
      "regionIstatCode": "01",
      "provinceIstatCode": "201",
      "name": "Carignano",
      "codeCatastale": "B777",
      "legacyIstatCode107": "001058",
      "centroidLat": 44.8972,
      "centroidLng": 7.661616
    },
    {
      "istatCode": "001059",
      "regionIstatCode": "01",
      "provinceIstatCode": "201",
      "name": "Carmagnola",
      "codeCatastale": "B791",
      "legacyIstatCode107": "001059",
      "centroidLat": 44.858368,
      "centroidLng": 7.735316
    },
    {
      "istatCode": "001060",
      "regionIstatCode": "01",
      "provinceIstatCode": "201",
      "name": "Casalborgone",
      "codeCatastale": "B867",
      "legacyIstatCode107": "001060",
      "centroidLat": 45.129586,
      "centroidLng": 7.935625
    },
    {
      "istatCode": "001061",
      "regionIstatCode": "01",
      "provinceIstatCode": "201",
      "name": "Cascinette d'Ivrea",
      "codeCatastale": "B953",
      "legacyIstatCode107": "001061",
      "centroidLat": 45.481311,
      "centroidLng": 7.907381
    },
    {
      "istatCode": "001062",
      "regionIstatCode": "01",
      "provinceIstatCode": "201",
      "name": "Caselette",
      "codeCatastale": "B955",
      "legacyIstatCode107": "001062",
      "centroidLat": 45.106337,
      "centroidLng": 7.470167
    },
    {
      "istatCode": "001063",
      "regionIstatCode": "01",
      "provinceIstatCode": "201",
      "name": "Caselle Torinese",
      "codeCatastale": "B960",
      "legacyIstatCode107": "001063",
      "centroidLat": 45.177396,
      "centroidLng": 7.65097
    },
    {
      "istatCode": "001064",
      "regionIstatCode": "01",
      "provinceIstatCode": "201",
      "name": "Castagneto Po",
      "codeCatastale": "C045",
      "legacyIstatCode107": "001064",
      "centroidLat": 45.162495,
      "centroidLng": 7.892494
    },
    {
      "istatCode": "001065",
      "regionIstatCode": "01",
      "provinceIstatCode": "201",
      "name": "Castagnole Piemonte",
      "codeCatastale": "C048",
      "legacyIstatCode107": "001065",
      "centroidLat": 44.894891,
      "centroidLng": 7.566471
    },
    {
      "istatCode": "001066",
      "regionIstatCode": "01",
      "provinceIstatCode": "201",
      "name": "Castellamonte",
      "codeCatastale": "C133",
      "legacyIstatCode107": "001066",
      "centroidLat": 45.40423,
      "centroidLng": 7.715876
    },
    {
      "istatCode": "001067",
      "regionIstatCode": "01",
      "provinceIstatCode": "201",
      "name": "Castelnuovo Nigra",
      "codeCatastale": "C241",
      "legacyIstatCode107": "001067",
      "centroidLat": 45.466409,
      "centroidLng": 7.679171
    },
    {
      "istatCode": "001068",
      "regionIstatCode": "01",
      "provinceIstatCode": "201",
      "name": "Castiglione Torinese",
      "codeCatastale": "C307",
      "legacyIstatCode107": "001068",
      "centroidLat": 45.112772,
      "centroidLng": 7.8035
    },
    {
      "istatCode": "001069",
      "regionIstatCode": "01",
      "provinceIstatCode": "201",
      "name": "Cavagnolo",
      "codeCatastale": "C369",
      "legacyIstatCode107": "001069",
      "centroidLat": 45.145498,
      "centroidLng": 8.034182
    },
    {
      "istatCode": "001070",
      "regionIstatCode": "01",
      "provinceIstatCode": "201",
      "name": "Cavour",
      "codeCatastale": "C404",
      "legacyIstatCode107": "001070",
      "centroidLat": 44.79469,
      "centroidLng": 7.388704
    },
    {
      "istatCode": "001071",
      "regionIstatCode": "01",
      "provinceIstatCode": "201",
      "name": "Cercenasco",
      "codeCatastale": "C487",
      "legacyIstatCode107": "001071",
      "centroidLat": 44.866301,
      "centroidLng": 7.502497
    },
    {
      "istatCode": "001072",
      "regionIstatCode": "01",
      "provinceIstatCode": "201",
      "name": "Ceres",
      "codeCatastale": "C497",
      "legacyIstatCode107": "001072",
      "centroidLat": 45.320613,
      "centroidLng": 7.362491
    },
    {
      "istatCode": "001073",
      "regionIstatCode": "01",
      "provinceIstatCode": "201",
      "name": "Ceresole Reale",
      "codeCatastale": "C505",
      "legacyIstatCode107": "001073",
      "centroidLat": 45.444509,
      "centroidLng": 7.19067
    },
    {
      "istatCode": "001074",
      "regionIstatCode": "01",
      "provinceIstatCode": "201",
      "name": "Cesana Torinese",
      "codeCatastale": "C564",
      "legacyIstatCode107": "001074",
      "centroidLat": 44.927605,
      "centroidLng": 6.820414
    },
    {
      "istatCode": "001075",
      "regionIstatCode": "01",
      "provinceIstatCode": "201",
      "name": "Chialamberto",
      "codeCatastale": "C604",
      "legacyIstatCode107": "001075",
      "centroidLat": 45.377585,
      "centroidLng": 7.339516
    },
    {
      "istatCode": "001076",
      "regionIstatCode": "01",
      "provinceIstatCode": "201",
      "name": "Chianocco",
      "codeCatastale": "C610",
      "legacyIstatCode107": "001076",
      "centroidLat": 45.166477,
      "centroidLng": 7.170927
    },
    {
      "istatCode": "001077",
      "regionIstatCode": "01",
      "provinceIstatCode": "201",
      "name": "Chiaverano",
      "codeCatastale": "C624",
      "legacyIstatCode107": "001077",
      "centroidLat": 45.504225,
      "centroidLng": 7.902311
    },
    {
      "istatCode": "001078",
      "regionIstatCode": "01",
      "provinceIstatCode": "201",
      "name": "Chieri",
      "codeCatastale": "C627",
      "legacyIstatCode107": "001078",
      "centroidLat": 45.003638,
      "centroidLng": 7.827998
    },
    {
      "istatCode": "001079",
      "regionIstatCode": "01",
      "provinceIstatCode": "201",
      "name": "Chiesanuova",
      "codeCatastale": "C629",
      "legacyIstatCode107": "001079",
      "centroidLat": 45.422698,
      "centroidLng": 7.647641
    },
    {
      "istatCode": "001080",
      "regionIstatCode": "01",
      "provinceIstatCode": "201",
      "name": "Chiomonte",
      "codeCatastale": "C639",
      "legacyIstatCode107": "001080",
      "centroidLat": 45.102239,
      "centroidLng": 6.985911
    },
    {
      "istatCode": "001081",
      "regionIstatCode": "01",
      "provinceIstatCode": "201",
      "name": "Chiusa di San Michele",
      "codeCatastale": "C655",
      "legacyIstatCode107": "001081",
      "centroidLat": 45.098701,
      "centroidLng": 7.32318
    },
    {
      "istatCode": "001082",
      "regionIstatCode": "01",
      "provinceIstatCode": "201",
      "name": "Chivasso",
      "codeCatastale": "C665",
      "legacyIstatCode107": "001082",
      "centroidLat": 45.205886,
      "centroidLng": 7.895873
    },
    {
      "istatCode": "001083",
      "regionIstatCode": "01",
      "provinceIstatCode": "201",
      "name": "Ciconio",
      "codeCatastale": "C679",
      "legacyIstatCode107": "001083",
      "centroidLat": 45.329732,
      "centroidLng": 7.76118
    },
    {
      "istatCode": "001084",
      "regionIstatCode": "01",
      "provinceIstatCode": "201",
      "name": "Cintano",
      "codeCatastale": "C711",
      "legacyIstatCode107": "001084",
      "centroidLat": 45.442929,
      "centroidLng": 7.681277
    },
    {
      "istatCode": "001085",
      "regionIstatCode": "01",
      "provinceIstatCode": "201",
      "name": "Cinzano",
      "codeCatastale": "C715",
      "legacyIstatCode107": "001085",
      "centroidLat": 45.093239,
      "centroidLng": 7.922317
    },
    {
      "istatCode": "001086",
      "regionIstatCode": "01",
      "provinceIstatCode": "201",
      "name": "Ciriè",
      "codeCatastale": "C722",
      "legacyIstatCode107": "001086",
      "centroidLat": 45.219678,
      "centroidLng": 7.59173
    },
    {
      "istatCode": "001087",
      "regionIstatCode": "01",
      "provinceIstatCode": "201",
      "name": "Claviere",
      "codeCatastale": "C793",
      "legacyIstatCode107": "001087",
      "centroidLat": 44.927748,
      "centroidLng": 6.756524
    },
    {
      "istatCode": "001088",
      "regionIstatCode": "01",
      "provinceIstatCode": "201",
      "name": "Coassolo Torinese",
      "codeCatastale": "C801",
      "legacyIstatCode107": "001088",
      "centroidLat": 45.325287,
      "centroidLng": 7.465605
    },
    {
      "istatCode": "001089",
      "regionIstatCode": "01",
      "provinceIstatCode": "201",
      "name": "Coazze",
      "codeCatastale": "C803",
      "legacyIstatCode107": "001089",
      "centroidLat": 45.050851,
      "centroidLng": 7.232456
    },
    {
      "istatCode": "001090",
      "regionIstatCode": "01",
      "provinceIstatCode": "201",
      "name": "Collegno",
      "codeCatastale": "C860",
      "legacyIstatCode107": "001090",
      "centroidLat": 45.091365,
      "centroidLng": 7.590259
    },
    {
      "istatCode": "001091",
      "regionIstatCode": "01",
      "provinceIstatCode": "201",
      "name": "Colleretto Castelnuovo",
      "codeCatastale": "C867",
      "legacyIstatCode107": "001091",
      "centroidLat": 45.439354,
      "centroidLng": 7.669002
    },
    {
      "istatCode": "001092",
      "regionIstatCode": "01",
      "provinceIstatCode": "201",
      "name": "Colleretto Giacosa",
      "codeCatastale": "C868",
      "legacyIstatCode107": "001092",
      "centroidLat": 45.430449,
      "centroidLng": 7.81247
    },
    {
      "istatCode": "001093",
      "regionIstatCode": "01",
      "provinceIstatCode": "201",
      "name": "Condove",
      "codeCatastale": "C955",
      "legacyIstatCode107": "001093",
      "centroidLat": 45.157168,
      "centroidLng": 7.272003
    },
    {
      "istatCode": "001094",
      "regionIstatCode": "01",
      "provinceIstatCode": "201",
      "name": "Corio",
      "codeCatastale": "D008",
      "legacyIstatCode107": "001094",
      "centroidLat": 45.329328,
      "centroidLng": 7.519346
    },
    {
      "istatCode": "001095",
      "regionIstatCode": "01",
      "provinceIstatCode": "201",
      "name": "Cossano Canavese",
      "codeCatastale": "D092",
      "legacyIstatCode107": "001095",
      "centroidLat": 45.386408,
      "centroidLng": 8.000364
    },
    {
      "istatCode": "001096",
      "regionIstatCode": "01",
      "provinceIstatCode": "201",
      "name": "Cuceglio",
      "codeCatastale": "D197",
      "legacyIstatCode107": "001096",
      "centroidLat": 45.358018,
      "centroidLng": 7.812456
    },
    {
      "istatCode": "001097",
      "regionIstatCode": "01",
      "provinceIstatCode": "201",
      "name": "Cumiana",
      "codeCatastale": "D202",
      "legacyIstatCode107": "001097",
      "centroidLat": 44.967799,
      "centroidLng": 7.384432
    },
    {
      "istatCode": "001098",
      "regionIstatCode": "01",
      "provinceIstatCode": "201",
      "name": "Cuorgnè",
      "codeCatastale": "D208",
      "legacyIstatCode107": "001098",
      "centroidLat": 45.399713,
      "centroidLng": 7.632466
    },
    {
      "istatCode": "001099",
      "regionIstatCode": "01",
      "provinceIstatCode": "201",
      "name": "Druento",
      "codeCatastale": "D373",
      "legacyIstatCode107": "001099",
      "centroidLat": 45.152495,
      "centroidLng": 7.568904
    },
    {
      "istatCode": "001100",
      "regionIstatCode": "01",
      "provinceIstatCode": "201",
      "name": "Exilles",
      "codeCatastale": "D433",
      "legacyIstatCode107": "001100",
      "centroidLat": 45.106277,
      "centroidLng": 6.918851
    },
    {
      "istatCode": "001101",
      "regionIstatCode": "01",
      "provinceIstatCode": "201",
      "name": "Favria",
      "codeCatastale": "D520",
      "legacyIstatCode107": "001101",
      "centroidLat": 45.310722,
      "centroidLng": 7.685387
    },
    {
      "istatCode": "001102",
      "regionIstatCode": "01",
      "provinceIstatCode": "201",
      "name": "Feletto",
      "codeCatastale": "D524",
      "legacyIstatCode107": "001102",
      "centroidLat": 45.29534,
      "centroidLng": 7.758463
    },
    {
      "istatCode": "001103",
      "regionIstatCode": "01",
      "provinceIstatCode": "201",
      "name": "Fenestrelle",
      "codeCatastale": "D532",
      "legacyIstatCode107": "001103",
      "centroidLat": 45.022171,
      "centroidLng": 7.05845
    },
    {
      "istatCode": "001104",
      "regionIstatCode": "01",
      "provinceIstatCode": "201",
      "name": "Fiano",
      "codeCatastale": "D562",
      "legacyIstatCode107": "001104",
      "centroidLat": 45.211981,
      "centroidLng": 7.528844
    },
    {
      "istatCode": "001105",
      "regionIstatCode": "01",
      "provinceIstatCode": "201",
      "name": "Fiorano Canavese",
      "codeCatastale": "D608",
      "legacyIstatCode107": "001105",
      "centroidLat": 45.466297,
      "centroidLng": 7.829883
    },
    {
      "istatCode": "001106",
      "regionIstatCode": "01",
      "provinceIstatCode": "201",
      "name": "Foglizzo",
      "codeCatastale": "D646",
      "legacyIstatCode107": "001106",
      "centroidLat": 45.26713,
      "centroidLng": 7.823144
    },
    {
      "istatCode": "001107",
      "regionIstatCode": "01",
      "provinceIstatCode": "201",
      "name": "Forno Canavese",
      "codeCatastale": "D725",
      "legacyIstatCode107": "001107",
      "centroidLat": 45.347374,
      "centroidLng": 7.567185
    },
    {
      "istatCode": "001108",
      "regionIstatCode": "01",
      "provinceIstatCode": "201",
      "name": "Frassinetto",
      "codeCatastale": "D781",
      "legacyIstatCode107": "001108",
      "centroidLat": 45.463636,
      "centroidLng": 7.620272
    },
    {
      "istatCode": "001109",
      "regionIstatCode": "01",
      "provinceIstatCode": "201",
      "name": "Front",
      "codeCatastale": "D805",
      "legacyIstatCode107": "001109",
      "centroidLat": 45.27352,
      "centroidLng": 7.668059
    },
    {
      "istatCode": "001110",
      "regionIstatCode": "01",
      "provinceIstatCode": "201",
      "name": "Frossasco",
      "codeCatastale": "D812",
      "legacyIstatCode107": "001110",
      "centroidLat": 44.934092,
      "centroidLng": 7.357581
    },
    {
      "istatCode": "001111",
      "regionIstatCode": "01",
      "provinceIstatCode": "201",
      "name": "Garzigliana",
      "codeCatastale": "D931",
      "legacyIstatCode107": "001111",
      "centroidLat": 44.833605,
      "centroidLng": 7.368107
    },
    {
      "istatCode": "001112",
      "regionIstatCode": "01",
      "provinceIstatCode": "201",
      "name": "Gassino Torinese",
      "codeCatastale": "D933",
      "legacyIstatCode107": "001112",
      "centroidLat": 45.11776,
      "centroidLng": 7.83814
    },
    {
      "istatCode": "001113",
      "regionIstatCode": "01",
      "provinceIstatCode": "201",
      "name": "Germagnano",
      "codeCatastale": "D983",
      "legacyIstatCode107": "001113",
      "centroidLat": 45.251961,
      "centroidLng": 7.456586
    },
    {
      "istatCode": "001114",
      "regionIstatCode": "01",
      "provinceIstatCode": "201",
      "name": "Giaglione",
      "codeCatastale": "E009",
      "legacyIstatCode107": "001114",
      "centroidLat": 45.150036,
      "centroidLng": 6.953459
    },
    {
      "istatCode": "001115",
      "regionIstatCode": "01",
      "provinceIstatCode": "201",
      "name": "Giaveno",
      "codeCatastale": "E020",
      "legacyIstatCode107": "001115",
      "centroidLat": 45.024801,
      "centroidLng": 7.304806
    },
    {
      "istatCode": "001116",
      "regionIstatCode": "01",
      "provinceIstatCode": "201",
      "name": "Givoletto",
      "codeCatastale": "E067",
      "legacyIstatCode107": "001116",
      "centroidLat": 45.162283,
      "centroidLng": 7.494401
    },
    {
      "istatCode": "001117",
      "regionIstatCode": "01",
      "provinceIstatCode": "201",
      "name": "Gravere",
      "codeCatastale": "E154",
      "legacyIstatCode107": "001117",
      "centroidLat": 45.107293,
      "centroidLng": 7.029047
    },
    {
      "istatCode": "001118",
      "regionIstatCode": "01",
      "provinceIstatCode": "201",
      "name": "Groscavallo",
      "codeCatastale": "E199",
      "legacyIstatCode107": "001118",
      "centroidLat": 45.367484,
      "centroidLng": 7.230218
    },
    {
      "istatCode": "001119",
      "regionIstatCode": "01",
      "provinceIstatCode": "201",
      "name": "Grosso",
      "codeCatastale": "E203",
      "legacyIstatCode107": "001119",
      "centroidLat": 45.267044,
      "centroidLng": 7.563339
    },
    {
      "istatCode": "001120",
      "regionIstatCode": "01",
      "provinceIstatCode": "201",
      "name": "Grugliasco",
      "codeCatastale": "E216",
      "legacyIstatCode107": "001120",
      "centroidLat": 45.055333,
      "centroidLng": 7.59322
    },
    {
      "istatCode": "001121",
      "regionIstatCode": "01",
      "provinceIstatCode": "201",
      "name": "Ingria",
      "codeCatastale": "E301",
      "legacyIstatCode107": "001121",
      "centroidLat": 45.477436,
      "centroidLng": 7.586791
    },
    {
      "istatCode": "001122",
      "regionIstatCode": "01",
      "provinceIstatCode": "201",
      "name": "Inverso Pinasca",
      "codeCatastale": "E311",
      "legacyIstatCode107": "001122",
      "centroidLat": 44.9336,
      "centroidLng": 7.214017
    },
    {
      "istatCode": "001123",
      "regionIstatCode": "01",
      "provinceIstatCode": "201",
      "name": "Isolabella",
      "codeCatastale": "E345",
      "legacyIstatCode107": "001123",
      "centroidLat": 44.904397,
      "centroidLng": 7.910805
    },
    {
      "istatCode": "001124",
      "regionIstatCode": "01",
      "provinceIstatCode": "201",
      "name": "Issiglio",
      "codeCatastale": "E368",
      "legacyIstatCode107": "001124",
      "centroidLat": 45.448857,
      "centroidLng": 7.736832
    },
    {
      "istatCode": "001125",
      "regionIstatCode": "01",
      "provinceIstatCode": "201",
      "name": "Ivrea",
      "codeCatastale": "E379",
      "legacyIstatCode107": "001125",
      "centroidLat": 45.453817,
      "centroidLng": 7.891198
    },
    {
      "istatCode": "001126",
      "regionIstatCode": "01",
      "provinceIstatCode": "201",
      "name": "La Cassa",
      "codeCatastale": "E394",
      "legacyIstatCode107": "001126",
      "centroidLat": 45.180159,
      "centroidLng": 7.518408
    },
    {
      "istatCode": "001127",
      "regionIstatCode": "01",
      "provinceIstatCode": "201",
      "name": "La Loggia",
      "codeCatastale": "E423",
      "legacyIstatCode107": "001127",
      "centroidLat": 44.953291,
      "centroidLng": 7.67578
    },
    {
      "istatCode": "001128",
      "regionIstatCode": "01",
      "provinceIstatCode": "201",
      "name": "Lanzo Torinese",
      "codeCatastale": "E445",
      "legacyIstatCode107": "001128",
      "centroidLat": 45.275582,
      "centroidLng": 7.480137
    },
    {
      "istatCode": "001129",
      "regionIstatCode": "01",
      "provinceIstatCode": "201",
      "name": "Lauriano",
      "codeCatastale": "E484",
      "legacyIstatCode107": "001129",
      "centroidLat": 45.152674,
      "centroidLng": 7.989507
    },
    {
      "istatCode": "001130",
      "regionIstatCode": "01",
      "provinceIstatCode": "201",
      "name": "Leini",
      "codeCatastale": "E518",
      "legacyIstatCode107": "001130",
      "centroidLat": 45.187509,
      "centroidLng": 7.719761
    },
    {
      "istatCode": "001131",
      "regionIstatCode": "01",
      "provinceIstatCode": "201",
      "name": "Lemie",
      "codeCatastale": "E520",
      "legacyIstatCode107": "001131",
      "centroidLat": 45.227685,
      "centroidLng": 7.283844
    },
    {
      "istatCode": "001132",
      "regionIstatCode": "01",
      "provinceIstatCode": "201",
      "name": "Lessolo",
      "codeCatastale": "E551",
      "legacyIstatCode107": "001132",
      "centroidLat": 45.482375,
      "centroidLng": 7.821552
    },
    {
      "istatCode": "001133",
      "regionIstatCode": "01",
      "provinceIstatCode": "201",
      "name": "Levone",
      "codeCatastale": "E566",
      "legacyIstatCode107": "001133",
      "centroidLat": 45.320209,
      "centroidLng": 7.600794
    },
    {
      "istatCode": "001134",
      "regionIstatCode": "01",
      "provinceIstatCode": "201",
      "name": "Locana",
      "codeCatastale": "E635",
      "legacyIstatCode107": "001134",
      "centroidLat": 45.436222,
      "centroidLng": 7.410721
    },
    {
      "istatCode": "001135",
      "regionIstatCode": "01",
      "provinceIstatCode": "201",
      "name": "Lombardore",
      "codeCatastale": "E660",
      "legacyIstatCode107": "001135",
      "centroidLat": 45.23511,
      "centroidLng": 7.72656
    },
    {
      "istatCode": "001136",
      "regionIstatCode": "01",
      "provinceIstatCode": "201",
      "name": "Lombriasco",
      "codeCatastale": "E661",
      "legacyIstatCode107": "001136",
      "centroidLat": 44.844751,
      "centroidLng": 7.635842
    },
    {
      "istatCode": "001137",
      "regionIstatCode": "01",
      "provinceIstatCode": "201",
      "name": "Loranzè",
      "codeCatastale": "E683",
      "legacyIstatCode107": "001137",
      "centroidLat": 45.44559,
      "centroidLng": 7.808876
    },
    {
      "istatCode": "001139",
      "regionIstatCode": "01",
      "provinceIstatCode": "201",
      "name": "Luserna San Giovanni",
      "codeCatastale": "E758",
      "legacyIstatCode107": "001139",
      "centroidLat": 44.805811,
      "centroidLng": 7.238164
    },
    {
      "istatCode": "001140",
      "regionIstatCode": "01",
      "provinceIstatCode": "201",
      "name": "Lusernetta",
      "codeCatastale": "E759",
      "legacyIstatCode107": "001140",
      "centroidLat": 44.795206,
      "centroidLng": 7.24408
    },
    {
      "istatCode": "001141",
      "regionIstatCode": "01",
      "provinceIstatCode": "201",
      "name": "Lusigliè",
      "codeCatastale": "E763",
      "legacyIstatCode107": "001141",
      "centroidLat": 45.311379,
      "centroidLng": 7.77029
    },
    {
      "istatCode": "001142",
      "regionIstatCode": "01",
      "provinceIstatCode": "201",
      "name": "Macello",
      "codeCatastale": "E782",
      "legacyIstatCode107": "001142",
      "centroidLat": 44.849659,
      "centroidLng": 7.415725
    },
    {
      "istatCode": "001143",
      "regionIstatCode": "01",
      "provinceIstatCode": "201",
      "name": "Maglione",
      "codeCatastale": "E817",
      "legacyIstatCode107": "001143",
      "centroidLat": 45.350615,
      "centroidLng": 8.009995
    },
    {
      "istatCode": "001144",
      "regionIstatCode": "01",
      "provinceIstatCode": "201",
      "name": "Marentino",
      "codeCatastale": "E941",
      "legacyIstatCode107": "001144",
      "centroidLat": 45.065477,
      "centroidLng": 7.879423
    },
    {
      "istatCode": "001145",
      "regionIstatCode": "01",
      "provinceIstatCode": "201",
      "name": "Massello",
      "codeCatastale": "F041",
      "legacyIstatCode107": "001145",
      "centroidLat": 44.968722,
      "centroidLng": 7.023902
    },
    {
      "istatCode": "001146",
      "regionIstatCode": "01",
      "provinceIstatCode": "201",
      "name": "Mathi",
      "codeCatastale": "F053",
      "legacyIstatCode107": "001146",
      "centroidLat": 45.262512,
      "centroidLng": 7.54327
    },
    {
      "istatCode": "001147",
      "regionIstatCode": "01",
      "provinceIstatCode": "201",
      "name": "Mattie",
      "codeCatastale": "F058",
      "legacyIstatCode107": "001147",
      "centroidLat": 45.096132,
      "centroidLng": 7.106927
    },
    {
      "istatCode": "001148",
      "regionIstatCode": "01",
      "provinceIstatCode": "201",
      "name": "Mazzè",
      "codeCatastale": "F067",
      "legacyIstatCode107": "001148",
      "centroidLat": 45.28431,
      "centroidLng": 7.939683
    },
    {
      "istatCode": "001149",
      "regionIstatCode": "01",
      "provinceIstatCode": "201",
      "name": "Meana di Susa",
      "codeCatastale": "F074",
      "legacyIstatCode107": "001149",
      "centroidLat": 45.100568,
      "centroidLng": 7.065882
    },
    {
      "istatCode": "001150",
      "regionIstatCode": "01",
      "provinceIstatCode": "201",
      "name": "Mercenasco",
      "codeCatastale": "F140",
      "legacyIstatCode107": "001150",
      "centroidLat": 45.356621,
      "centroidLng": 7.869359
    },
    {
      "istatCode": "001152",
      "regionIstatCode": "01",
      "provinceIstatCode": "201",
      "name": "Mezzenile",
      "codeCatastale": "F182",
      "legacyIstatCode107": "001152",
      "centroidLat": 45.282057,
      "centroidLng": 7.366837
    },
    {
      "istatCode": "001153",
      "regionIstatCode": "01",
      "provinceIstatCode": "201",
      "name": "Mombello di Torino",
      "codeCatastale": "F315",
      "legacyIstatCode107": "001153",
      "centroidLat": 45.043205,
      "centroidLng": 7.917537
    },
    {
      "istatCode": "001154",
      "regionIstatCode": "01",
      "provinceIstatCode": "201",
      "name": "Mompantero",
      "codeCatastale": "F318",
      "legacyIstatCode107": "001154",
      "centroidLat": 45.168725,
      "centroidLng": 7.076036
    },
    {
      "istatCode": "001155",
      "regionIstatCode": "01",
      "provinceIstatCode": "201",
      "name": "Monastero di Lanzo",
      "codeCatastale": "F327",
      "legacyIstatCode107": "001155",
      "centroidLat": 45.324447,
      "centroidLng": 7.431386
    },
    {
      "istatCode": "001156",
      "regionIstatCode": "01",
      "provinceIstatCode": "201",
      "name": "Moncalieri",
      "codeCatastale": "F335",
      "legacyIstatCode107": "001156",
      "centroidLat": 44.9884,
      "centroidLng": 7.702663
    },
    {
      "istatCode": "001157",
      "regionIstatCode": "01",
      "provinceIstatCode": "201",
      "name": "Moncenisio",
      "codeCatastale": "D553",
      "legacyIstatCode107": "001157",
      "centroidLat": 45.204594,
      "centroidLng": 6.984218
    },
    {
      "istatCode": "001158",
      "regionIstatCode": "01",
      "provinceIstatCode": "201",
      "name": "Montaldo Torinese",
      "codeCatastale": "F407",
      "legacyIstatCode107": "001158",
      "centroidLat": 45.066559,
      "centroidLng": 7.853281
    },
    {
      "istatCode": "001159",
      "regionIstatCode": "01",
      "provinceIstatCode": "201",
      "name": "Montalenghe",
      "codeCatastale": "F411",
      "legacyIstatCode107": "001159",
      "centroidLat": 45.331583,
      "centroidLng": 7.834425
    },
    {
      "istatCode": "001160",
      "regionIstatCode": "01",
      "provinceIstatCode": "201",
      "name": "Montalto Dora",
      "codeCatastale": "F420",
      "legacyIstatCode107": "001160",
      "centroidLat": 45.493739,
      "centroidLng": 7.862732
    },
    {
      "istatCode": "001161",
      "regionIstatCode": "01",
      "provinceIstatCode": "201",
      "name": "Montanaro",
      "codeCatastale": "F422",
      "legacyIstatCode107": "001161",
      "centroidLat": 45.234549,
      "centroidLng": 7.84996
    },
    {
      "istatCode": "001162",
      "regionIstatCode": "01",
      "provinceIstatCode": "201",
      "name": "Monteu da Po",
      "codeCatastale": "F651",
      "legacyIstatCode107": "001162",
      "centroidLat": 45.162706,
      "centroidLng": 8.015567
    },
    {
      "istatCode": "001163",
      "regionIstatCode": "01",
      "provinceIstatCode": "201",
      "name": "Moriondo Torinese",
      "codeCatastale": "F733",
      "legacyIstatCode107": "001163",
      "centroidLat": 45.035383,
      "centroidLng": 7.936826
    },
    {
      "istatCode": "001164",
      "regionIstatCode": "01",
      "provinceIstatCode": "201",
      "name": "Nichelino",
      "codeCatastale": "F889",
      "legacyIstatCode107": "001164",
      "centroidLat": 44.989987,
      "centroidLng": 7.623913
    },
    {
      "istatCode": "001165",
      "regionIstatCode": "01",
      "provinceIstatCode": "201",
      "name": "Noasca",
      "codeCatastale": "F906",
      "legacyIstatCode107": "001165",
      "centroidLat": 45.465197,
      "centroidLng": 7.301867
    },
    {
      "istatCode": "001166",
      "regionIstatCode": "01",
      "provinceIstatCode": "201",
      "name": "Nole",
      "codeCatastale": "F925",
      "legacyIstatCode107": "001166",
      "centroidLat": 45.244305,
      "centroidLng": 7.568469
    },
    {
      "istatCode": "001167",
      "regionIstatCode": "01",
      "provinceIstatCode": "201",
      "name": "Nomaglio",
      "codeCatastale": "F927",
      "legacyIstatCode107": "001167",
      "centroidLat": 45.542242,
      "centroidLng": 7.861409
    },
    {
      "istatCode": "001168",
      "regionIstatCode": "01",
      "provinceIstatCode": "201",
      "name": "None",
      "codeCatastale": "F931",
      "legacyIstatCode107": "001168",
      "centroidLat": 44.940151,
      "centroidLng": 7.548854
    },
    {
      "istatCode": "001169",
      "regionIstatCode": "01",
      "provinceIstatCode": "201",
      "name": "Novalesa",
      "codeCatastale": "F948",
      "legacyIstatCode107": "001169",
      "centroidLat": 45.195762,
      "centroidLng": 7.03443
    },
    {
      "istatCode": "001170",
      "regionIstatCode": "01",
      "provinceIstatCode": "201",
      "name": "Oglianico",
      "codeCatastale": "G010",
      "legacyIstatCode107": "001170",
      "centroidLat": 45.318292,
      "centroidLng": 7.691413
    },
    {
      "istatCode": "001171",
      "regionIstatCode": "01",
      "provinceIstatCode": "201",
      "name": "Orbassano",
      "codeCatastale": "G087",
      "legacyIstatCode107": "001171",
      "centroidLat": 45.006053,
      "centroidLng": 7.555833
    },
    {
      "istatCode": "001172",
      "regionIstatCode": "01",
      "provinceIstatCode": "201",
      "name": "Orio Canavese",
      "codeCatastale": "G109",
      "legacyIstatCode107": "001172",
      "centroidLat": 45.325675,
      "centroidLng": 7.853861
    },
    {
      "istatCode": "001173",
      "regionIstatCode": "01",
      "provinceIstatCode": "201",
      "name": "Osasco",
      "codeCatastale": "G151",
      "legacyIstatCode107": "001173",
      "centroidLat": 44.848629,
      "centroidLng": 7.348294
    },
    {
      "istatCode": "001174",
      "regionIstatCode": "01",
      "provinceIstatCode": "201",
      "name": "Osasio",
      "codeCatastale": "G152",
      "legacyIstatCode107": "001174",
      "centroidLat": 44.873982,
      "centroidLng": 7.610043
    },
    {
      "istatCode": "001175",
      "regionIstatCode": "01",
      "provinceIstatCode": "201",
      "name": "Oulx",
      "codeCatastale": "G196",
      "legacyIstatCode107": "001175",
      "centroidLat": 45.044461,
      "centroidLng": 6.798532
    },
    {
      "istatCode": "001176",
      "regionIstatCode": "01",
      "provinceIstatCode": "201",
      "name": "Ozegna",
      "codeCatastale": "G202",
      "legacyIstatCode107": "001176",
      "centroidLat": 45.344405,
      "centroidLng": 7.74909
    },
    {
      "istatCode": "001177",
      "regionIstatCode": "01",
      "provinceIstatCode": "201",
      "name": "Palazzo Canavese",
      "codeCatastale": "G262",
      "legacyIstatCode107": "001177",
      "centroidLat": 45.456679,
      "centroidLng": 7.980189
    },
    {
      "istatCode": "001178",
      "regionIstatCode": "01",
      "provinceIstatCode": "201",
      "name": "Pancalieri",
      "codeCatastale": "G303",
      "legacyIstatCode107": "001178",
      "centroidLat": 44.832338,
      "centroidLng": 7.583833
    },
    {
      "istatCode": "001179",
      "regionIstatCode": "01",
      "provinceIstatCode": "201",
      "name": "Parella",
      "codeCatastale": "G330",
      "legacyIstatCode107": "001179",
      "centroidLat": 45.422655,
      "centroidLng": 7.795823
    },
    {
      "istatCode": "001180",
      "regionIstatCode": "01",
      "provinceIstatCode": "201",
      "name": "Pavarolo",
      "codeCatastale": "G387",
      "legacyIstatCode107": "001180",
      "centroidLat": 45.076883,
      "centroidLng": 7.832815
    },
    {
      "istatCode": "001181",
      "regionIstatCode": "01",
      "provinceIstatCode": "201",
      "name": "Pavone Canavese",
      "codeCatastale": "G392",
      "legacyIstatCode107": "001181",
      "centroidLat": 45.429015,
      "centroidLng": 7.850966
    },
    {
      "istatCode": "001183",
      "regionIstatCode": "01",
      "provinceIstatCode": "201",
      "name": "Pecetto Torinese",
      "codeCatastale": "G398",
      "legacyIstatCode107": "001183",
      "centroidLat": 45.017938,
      "centroidLng": 7.753007
    },
    {
      "istatCode": "001184",
      "regionIstatCode": "01",
      "provinceIstatCode": "201",
      "name": "Perosa Argentina",
      "codeCatastale": "G463",
      "legacyIstatCode107": "001184",
      "centroidLat": 44.98208,
      "centroidLng": 7.188098
    },
    {
      "istatCode": "001185",
      "regionIstatCode": "01",
      "provinceIstatCode": "201",
      "name": "Perosa Canavese",
      "codeCatastale": "G462",
      "legacyIstatCode107": "001185",
      "centroidLat": 45.407255,
      "centroidLng": 7.834813
    },
    {
      "istatCode": "001186",
      "regionIstatCode": "01",
      "provinceIstatCode": "201",
      "name": "Perrero",
      "codeCatastale": "G465",
      "legacyIstatCode107": "001186",
      "centroidLat": 44.923508,
      "centroidLng": 7.121879
    },
    {
      "istatCode": "001187",
      "regionIstatCode": "01",
      "provinceIstatCode": "201",
      "name": "Pertusio",
      "codeCatastale": "G477",
      "legacyIstatCode107": "001187",
      "centroidLat": 45.350532,
      "centroidLng": 7.639455
    },
    {
      "istatCode": "001188",
      "regionIstatCode": "01",
      "provinceIstatCode": "201",
      "name": "Pessinetto",
      "codeCatastale": "G505",
      "legacyIstatCode107": "001188",
      "centroidLat": 45.287483,
      "centroidLng": 7.426394
    },
    {
      "istatCode": "001189",
      "regionIstatCode": "01",
      "provinceIstatCode": "201",
      "name": "Pianezza",
      "codeCatastale": "G559",
      "legacyIstatCode107": "001189",
      "centroidLat": 45.113847,
      "centroidLng": 7.553934
    },
    {
      "istatCode": "001190",
      "regionIstatCode": "01",
      "provinceIstatCode": "201",
      "name": "Pinasca",
      "codeCatastale": "G672",
      "legacyIstatCode107": "001190",
      "centroidLat": 44.967597,
      "centroidLng": 7.247148
    },
    {
      "istatCode": "001191",
      "regionIstatCode": "01",
      "provinceIstatCode": "201",
      "name": "Pinerolo",
      "codeCatastale": "G674",
      "legacyIstatCode107": "001191",
      "centroidLat": 44.891364,
      "centroidLng": 7.347531
    },
    {
      "istatCode": "001192",
      "regionIstatCode": "01",
      "provinceIstatCode": "201",
      "name": "Pino Torinese",
      "codeCatastale": "G678",
      "legacyIstatCode107": "001192",
      "centroidLat": 45.044313,
      "centroidLng": 7.777536
    },
    {
      "istatCode": "001193",
      "regionIstatCode": "01",
      "provinceIstatCode": "201",
      "name": "Piobesi Torinese",
      "codeCatastale": "G684",
      "legacyIstatCode107": "001193",
      "centroidLat": 44.920476,
      "centroidLng": 7.603211
    },
    {
      "istatCode": "001194",
      "regionIstatCode": "01",
      "provinceIstatCode": "201",
      "name": "Piossasco",
      "codeCatastale": "G691",
      "legacyIstatCode107": "001194",
      "centroidLat": 44.986699,
      "centroidLng": 7.449533
    },
    {
      "istatCode": "001195",
      "regionIstatCode": "01",
      "provinceIstatCode": "201",
      "name": "Piscina",
      "codeCatastale": "G705",
      "legacyIstatCode107": "001195",
      "centroidLat": 44.920493,
      "centroidLng": 7.425987
    },
    {
      "istatCode": "001196",
      "regionIstatCode": "01",
      "provinceIstatCode": "201",
      "name": "Piverone",
      "codeCatastale": "G719",
      "legacyIstatCode107": "001196",
      "centroidLat": 45.440978,
      "centroidLng": 8.008786
    },
    {
      "istatCode": "001197",
      "regionIstatCode": "01",
      "provinceIstatCode": "201",
      "name": "Poirino",
      "codeCatastale": "G777",
      "legacyIstatCode107": "001197",
      "centroidLat": 44.902518,
      "centroidLng": 7.842807
    },
    {
      "istatCode": "001198",
      "regionIstatCode": "01",
      "provinceIstatCode": "201",
      "name": "Pomaretto",
      "codeCatastale": "G805",
      "legacyIstatCode107": "001198",
      "centroidLat": 44.950372,
      "centroidLng": 7.178219
    },
    {
      "istatCode": "001199",
      "regionIstatCode": "01",
      "provinceIstatCode": "201",
      "name": "Pont Canavese",
      "codeCatastale": "G826",
      "legacyIstatCode107": "001199",
      "centroidLat": 45.432696,
      "centroidLng": 7.584818
    },
    {
      "istatCode": "001200",
      "regionIstatCode": "01",
      "provinceIstatCode": "201",
      "name": "Porte",
      "codeCatastale": "G900",
      "legacyIstatCode107": "001200",
      "centroidLat": 44.894564,
      "centroidLng": 7.267665
    },
    {
      "istatCode": "001201",
      "regionIstatCode": "01",
      "provinceIstatCode": "201",
      "name": "Pragelato",
      "codeCatastale": "G973",
      "legacyIstatCode107": "001201",
      "centroidLat": 44.983478,
      "centroidLng": 6.946167
    },
    {
      "istatCode": "001202",
      "regionIstatCode": "01",
      "provinceIstatCode": "201",
      "name": "Prali",
      "codeCatastale": "G978",
      "legacyIstatCode107": "001202",
      "centroidLat": 44.881534,
      "centroidLng": 7.044492
    },
    {
      "istatCode": "001203",
      "regionIstatCode": "01",
      "provinceIstatCode": "201",
      "name": "Pralormo",
      "codeCatastale": "G979",
      "legacyIstatCode107": "001203",
      "centroidLat": 44.852863,
      "centroidLng": 7.89752
    },
    {
      "istatCode": "001204",
      "regionIstatCode": "01",
      "provinceIstatCode": "201",
      "name": "Pramollo",
      "codeCatastale": "G982",
      "legacyIstatCode107": "001204",
      "centroidLat": 44.901052,
      "centroidLng": 7.190763
    },
    {
      "istatCode": "001205",
      "regionIstatCode": "01",
      "provinceIstatCode": "201",
      "name": "Prarostino",
      "codeCatastale": "G986",
      "legacyIstatCode107": "001205",
      "centroidLat": 44.866017,
      "centroidLng": 7.265132
    },
    {
      "istatCode": "001206",
      "regionIstatCode": "01",
      "provinceIstatCode": "201",
      "name": "Prascorsano",
      "codeCatastale": "G988",
      "legacyIstatCode107": "001206",
      "centroidLat": 45.363974,
      "centroidLng": 7.618223
    },
    {
      "istatCode": "001207",
      "regionIstatCode": "01",
      "provinceIstatCode": "201",
      "name": "Pratiglione",
      "codeCatastale": "G997",
      "legacyIstatCode107": "001207",
      "centroidLat": 45.361799,
      "centroidLng": 7.577886
    },
    {
      "istatCode": "001208",
      "regionIstatCode": "01",
      "provinceIstatCode": "201",
      "name": "Quagliuzzo",
      "codeCatastale": "H100",
      "legacyIstatCode107": "001208",
      "centroidLat": 45.424089,
      "centroidLng": 7.780928
    },
    {
      "istatCode": "001209",
      "regionIstatCode": "01",
      "provinceIstatCode": "201",
      "name": "Quassolo",
      "codeCatastale": "H120",
      "legacyIstatCode107": "001209",
      "centroidLat": 45.5251,
      "centroidLng": 7.82705
    },
    {
      "istatCode": "001210",
      "regionIstatCode": "01",
      "provinceIstatCode": "201",
      "name": "Quincinetto",
      "codeCatastale": "H127",
      "legacyIstatCode107": "001210",
      "centroidLat": 45.556863,
      "centroidLng": 7.778109
    },
    {
      "istatCode": "001211",
      "regionIstatCode": "01",
      "provinceIstatCode": "201",
      "name": "Reano",
      "codeCatastale": "H207",
      "legacyIstatCode107": "001211",
      "centroidLat": 45.053232,
      "centroidLng": 7.428727
    },
    {
      "istatCode": "001212",
      "regionIstatCode": "01",
      "provinceIstatCode": "201",
      "name": "Ribordone",
      "codeCatastale": "H270",
      "legacyIstatCode107": "001212",
      "centroidLat": 45.452949,
      "centroidLng": 7.479981
    },
    {
      "istatCode": "001213",
      "regionIstatCode": "01",
      "provinceIstatCode": "201",
      "name": "Rivalba",
      "codeCatastale": "H333",
      "legacyIstatCode107": "001213",
      "centroidLat": 45.122775,
      "centroidLng": 7.889091
    },
    {
      "istatCode": "001214",
      "regionIstatCode": "01",
      "provinceIstatCode": "201",
      "name": "Rivalta di Torino",
      "codeCatastale": "H335",
      "legacyIstatCode107": "001214",
      "centroidLat": 45.022449,
      "centroidLng": 7.520366
    },
    {
      "istatCode": "001215",
      "regionIstatCode": "01",
      "provinceIstatCode": "201",
      "name": "Riva presso Chieri",
      "codeCatastale": "H337",
      "legacyIstatCode107": "001215",
      "centroidLat": 44.979355,
      "centroidLng": 7.888871
    },
    {
      "istatCode": "001216",
      "regionIstatCode": "01",
      "provinceIstatCode": "201",
      "name": "Rivara",
      "codeCatastale": "H338",
      "legacyIstatCode107": "001216",
      "centroidLat": 45.326159,
      "centroidLng": 7.63186
    },
    {
      "istatCode": "001217",
      "regionIstatCode": "01",
      "provinceIstatCode": "201",
      "name": "Rivarolo Canavese",
      "codeCatastale": "H340",
      "legacyIstatCode107": "001217",
      "centroidLat": 45.304044,
      "centroidLng": 7.724941
    },
    {
      "istatCode": "001218",
      "regionIstatCode": "01",
      "provinceIstatCode": "201",
      "name": "Rivarossa",
      "codeCatastale": "H344",
      "legacyIstatCode107": "001218",
      "centroidLat": 45.253503,
      "centroidLng": 7.702224
    },
    {
      "istatCode": "001219",
      "regionIstatCode": "01",
      "provinceIstatCode": "201",
      "name": "Rivoli",
      "codeCatastale": "H355",
      "legacyIstatCode107": "001219",
      "centroidLat": 45.067047,
      "centroidLng": 7.523284
    },
    {
      "istatCode": "001220",
      "regionIstatCode": "01",
      "provinceIstatCode": "201",
      "name": "Robassomero",
      "codeCatastale": "H367",
      "legacyIstatCode107": "001220",
      "centroidLat": 45.190577,
      "centroidLng": 7.57833
    },
    {
      "istatCode": "001221",
      "regionIstatCode": "01",
      "provinceIstatCode": "201",
      "name": "Rocca Canavese",
      "codeCatastale": "H386",
      "legacyIstatCode107": "001221",
      "centroidLat": 45.30852,
      "centroidLng": 7.575174
    },
    {
      "istatCode": "001222",
      "regionIstatCode": "01",
      "provinceIstatCode": "201",
      "name": "Roletto",
      "codeCatastale": "H498",
      "legacyIstatCode107": "001222",
      "centroidLat": 44.920262,
      "centroidLng": 7.336139
    },
    {
      "istatCode": "001223",
      "regionIstatCode": "01",
      "provinceIstatCode": "201",
      "name": "Romano Canavese",
      "codeCatastale": "H511",
      "legacyIstatCode107": "001223",
      "centroidLat": 45.400079,
      "centroidLng": 7.870378
    },
    {
      "istatCode": "001224",
      "regionIstatCode": "01",
      "provinceIstatCode": "201",
      "name": "Ronco Canavese",
      "codeCatastale": "H539",
      "legacyIstatCode107": "001224",
      "centroidLat": 45.507568,
      "centroidLng": 7.498041
    },
    {
      "istatCode": "001225",
      "regionIstatCode": "01",
      "provinceIstatCode": "201",
      "name": "Rondissone",
      "codeCatastale": "H547",
      "legacyIstatCode107": "001225",
      "centroidLat": 45.246534,
      "centroidLng": 7.960563
    },
    {
      "istatCode": "001226",
      "regionIstatCode": "01",
      "provinceIstatCode": "201",
      "name": "Rorà",
      "codeCatastale": "H554",
      "legacyIstatCode107": "001226",
      "centroidLat": 44.779804,
      "centroidLng": 7.189978
    },
    {
      "istatCode": "001227",
      "regionIstatCode": "01",
      "provinceIstatCode": "201",
      "name": "Roure",
      "codeCatastale": "H555",
      "legacyIstatCode107": "001227",
      "centroidLat": 45.011096,
      "centroidLng": 7.12765
    },
    {
      "istatCode": "001228",
      "regionIstatCode": "01",
      "provinceIstatCode": "201",
      "name": "Rosta",
      "codeCatastale": "H583",
      "legacyIstatCode107": "001228",
      "centroidLat": 45.075197,
      "centroidLng": 7.466553
    },
    {
      "istatCode": "001229",
      "regionIstatCode": "01",
      "provinceIstatCode": "201",
      "name": "Rubiana",
      "codeCatastale": "H627",
      "legacyIstatCode107": "001229",
      "centroidLat": 45.156256,
      "centroidLng": 7.374626
    },
    {
      "istatCode": "001230",
      "regionIstatCode": "01",
      "provinceIstatCode": "201",
      "name": "Rueglio",
      "codeCatastale": "H631",
      "legacyIstatCode107": "001230",
      "centroidLat": 45.473506,
      "centroidLng": 7.738288
    },
    {
      "istatCode": "001231",
      "regionIstatCode": "01",
      "provinceIstatCode": "201",
      "name": "Salassa",
      "codeCatastale": "H691",
      "legacyIstatCode107": "001231",
      "centroidLat": 45.359181,
      "centroidLng": 7.692653
    },
    {
      "istatCode": "001232",
      "regionIstatCode": "01",
      "provinceIstatCode": "201",
      "name": "Salbertrand",
      "codeCatastale": "H684",
      "legacyIstatCode107": "001232",
      "centroidLat": 45.075059,
      "centroidLng": 6.882733
    },
    {
      "istatCode": "001233",
      "regionIstatCode": "01",
      "provinceIstatCode": "201",
      "name": "Salerano Canavese",
      "codeCatastale": "H702",
      "legacyIstatCode107": "001233",
      "centroidLat": 45.457732,
      "centroidLng": 7.842341
    },
    {
      "istatCode": "001234",
      "regionIstatCode": "01",
      "provinceIstatCode": "201",
      "name": "Salza di Pinerolo",
      "codeCatastale": "H734",
      "legacyIstatCode107": "001234",
      "centroidLat": 44.935214,
      "centroidLng": 7.030759
    },
    {
      "istatCode": "001235",
      "regionIstatCode": "01",
      "provinceIstatCode": "201",
      "name": "Samone",
      "codeCatastale": "H753",
      "legacyIstatCode107": "001235",
      "centroidLat": 45.447103,
      "centroidLng": 7.838952
    },
    {
      "istatCode": "001236",
      "regionIstatCode": "01",
      "provinceIstatCode": "201",
      "name": "San Benigno Canavese",
      "codeCatastale": "H775",
      "legacyIstatCode107": "001236",
      "centroidLat": 45.231988,
      "centroidLng": 7.786323
    },
    {
      "istatCode": "001237",
      "regionIstatCode": "01",
      "provinceIstatCode": "201",
      "name": "San Carlo Canavese",
      "codeCatastale": "H789",
      "legacyIstatCode107": "001237",
      "centroidLat": 45.254776,
      "centroidLng": 7.617746
    },
    {
      "istatCode": "001238",
      "regionIstatCode": "01",
      "provinceIstatCode": "201",
      "name": "San Colombano Belmonte",
      "codeCatastale": "H804",
      "legacyIstatCode107": "001238",
      "centroidLat": 45.386241,
      "centroidLng": 7.608227
    },
    {
      "istatCode": "001239",
      "regionIstatCode": "01",
      "provinceIstatCode": "201",
      "name": "San Didero",
      "codeCatastale": "H820",
      "legacyIstatCode107": "001239",
      "centroidLat": 45.134425,
      "centroidLng": 7.216877
    },
    {
      "istatCode": "001240",
      "regionIstatCode": "01",
      "provinceIstatCode": "201",
      "name": "San Francesco al Campo",
      "codeCatastale": "H847",
      "legacyIstatCode107": "001240",
      "centroidLat": 45.229801,
      "centroidLng": 7.666562
    },
    {
      "istatCode": "001241",
      "regionIstatCode": "01",
      "provinceIstatCode": "201",
      "name": "Sangano",
      "codeCatastale": "H855",
      "legacyIstatCode107": "001241",
      "centroidLat": 45.023353,
      "centroidLng": 7.44491
    },
    {
      "istatCode": "001242",
      "regionIstatCode": "01",
      "provinceIstatCode": "201",
      "name": "San Germano Chisone",
      "codeCatastale": "H862",
      "legacyIstatCode107": "001242",
      "centroidLat": 44.888833,
      "centroidLng": 7.236093
    },
    {
      "istatCode": "001243",
      "regionIstatCode": "01",
      "provinceIstatCode": "201",
      "name": "San Gillio",
      "codeCatastale": "H873",
      "legacyIstatCode107": "001243",
      "centroidLat": 45.138632,
      "centroidLng": 7.524367
    },
    {
      "istatCode": "001244",
      "regionIstatCode": "01",
      "provinceIstatCode": "201",
      "name": "San Giorgio Canavese",
      "codeCatastale": "H890",
      "legacyIstatCode107": "001244",
      "centroidLat": 45.32118,
      "centroidLng": 7.799732
    },
    {
      "istatCode": "001245",
      "regionIstatCode": "01",
      "provinceIstatCode": "201",
      "name": "San Giorio di Susa",
      "codeCatastale": "H900",
      "legacyIstatCode107": "001245",
      "centroidLat": 45.095224,
      "centroidLng": 7.173341
    },
    {
      "istatCode": "001246",
      "regionIstatCode": "01",
      "provinceIstatCode": "201",
      "name": "San Giusto Canavese",
      "codeCatastale": "H936",
      "legacyIstatCode107": "001246",
      "centroidLat": 45.298441,
      "centroidLng": 7.807761
    },
    {
      "istatCode": "001247",
      "regionIstatCode": "01",
      "provinceIstatCode": "201",
      "name": "San Martino Canavese",
      "codeCatastale": "H997",
      "legacyIstatCode107": "001247",
      "centroidLat": 45.396819,
      "centroidLng": 7.809058
    },
    {
      "istatCode": "001248",
      "regionIstatCode": "01",
      "provinceIstatCode": "201",
      "name": "San Maurizio Canavese",
      "codeCatastale": "I024",
      "legacyIstatCode107": "001248",
      "centroidLat": 45.204434,
      "centroidLng": 7.635831
    },
    {
      "istatCode": "001249",
      "regionIstatCode": "01",
      "provinceIstatCode": "201",
      "name": "San Mauro Torinese",
      "codeCatastale": "I030",
      "legacyIstatCode107": "001249",
      "centroidLat": 45.103547,
      "centroidLng": 7.765396
    },
    {
      "istatCode": "001250",
      "regionIstatCode": "01",
      "provinceIstatCode": "201",
      "name": "San Pietro Val Lemina",
      "codeCatastale": "I090",
      "legacyIstatCode107": "001250",
      "centroidLat": 44.928912,
      "centroidLng": 7.289186
    },
    {
      "istatCode": "001251",
      "regionIstatCode": "01",
      "provinceIstatCode": "201",
      "name": "San Ponso",
      "codeCatastale": "I126",
      "legacyIstatCode107": "001251",
      "centroidLat": 45.3461,
      "centroidLng": 7.6643
    },
    {
      "istatCode": "001252",
      "regionIstatCode": "01",
      "provinceIstatCode": "201",
      "name": "San Raffaele Cimena",
      "codeCatastale": "I137",
      "legacyIstatCode107": "001252",
      "centroidLat": 45.152071,
      "centroidLng": 7.855888
    },
    {
      "istatCode": "001253",
      "regionIstatCode": "01",
      "provinceIstatCode": "201",
      "name": "San Sebastiano da Po",
      "codeCatastale": "I152",
      "legacyIstatCode107": "001253",
      "centroidLat": 45.160008,
      "centroidLng": 7.943562
    },
    {
      "istatCode": "001254",
      "regionIstatCode": "01",
      "provinceIstatCode": "201",
      "name": "San Secondo di Pinerolo",
      "codeCatastale": "I154",
      "legacyIstatCode107": "001254",
      "centroidLat": 44.860486,
      "centroidLng": 7.303554
    },
    {
      "istatCode": "001255",
      "regionIstatCode": "01",
      "provinceIstatCode": "201",
      "name": "Sant'Ambrogio di Torino",
      "codeCatastale": "I258",
      "legacyIstatCode107": "001255",
      "centroidLat": 45.096711,
      "centroidLng": 7.359329
    },
    {
      "istatCode": "001256",
      "regionIstatCode": "01",
      "provinceIstatCode": "201",
      "name": "Sant'Antonino di Susa",
      "codeCatastale": "I296",
      "legacyIstatCode107": "001256",
      "centroidLat": 45.093686,
      "centroidLng": 7.265491
    },
    {
      "istatCode": "001257",
      "regionIstatCode": "01",
      "provinceIstatCode": "201",
      "name": "Santena",
      "codeCatastale": "I327",
      "legacyIstatCode107": "001257",
      "centroidLat": 44.944215,
      "centroidLng": 7.782726
    },
    {
      "istatCode": "001258",
      "regionIstatCode": "01",
      "provinceIstatCode": "201",
      "name": "Sauze di Cesana",
      "codeCatastale": "I465",
      "legacyIstatCode107": "001258",
      "centroidLat": 44.897535,
      "centroidLng": 6.926308
    },
    {
      "istatCode": "001259",
      "regionIstatCode": "01",
      "provinceIstatCode": "201",
      "name": "Sauze d'Oulx",
      "codeCatastale": "I466",
      "legacyIstatCode107": "001259",
      "centroidLat": 45.017824,
      "centroidLng": 6.869794
    },
    {
      "istatCode": "001260",
      "regionIstatCode": "01",
      "provinceIstatCode": "201",
      "name": "Scalenghe",
      "codeCatastale": "I490",
      "legacyIstatCode107": "001260",
      "centroidLat": 44.893054,
      "centroidLng": 7.487015
    },
    {
      "istatCode": "001261",
      "regionIstatCode": "01",
      "provinceIstatCode": "201",
      "name": "Scarmagno",
      "codeCatastale": "I511",
      "legacyIstatCode107": "001261",
      "centroidLat": 45.381463,
      "centroidLng": 7.845282
    },
    {
      "istatCode": "001262",
      "regionIstatCode": "01",
      "provinceIstatCode": "201",
      "name": "Sciolze",
      "codeCatastale": "I539",
      "legacyIstatCode107": "001262",
      "centroidLat": 45.0988,
      "centroidLng": 7.875941
    },
    {
      "istatCode": "001263",
      "regionIstatCode": "01",
      "provinceIstatCode": "201",
      "name": "Sestriere",
      "codeCatastale": "I692",
      "legacyIstatCode107": "001263",
      "centroidLat": 44.960018,
      "centroidLng": 6.883931
    },
    {
      "istatCode": "001264",
      "regionIstatCode": "01",
      "provinceIstatCode": "201",
      "name": "Settimo Rottaro",
      "codeCatastale": "I701",
      "legacyIstatCode107": "001264",
      "centroidLat": 45.406561,
      "centroidLng": 7.992883
    },
    {
      "istatCode": "001265",
      "regionIstatCode": "01",
      "provinceIstatCode": "201",
      "name": "Settimo Torinese",
      "codeCatastale": "I703",
      "legacyIstatCode107": "001265",
      "centroidLat": 45.145771,
      "centroidLng": 7.773107
    },
    {
      "istatCode": "001266",
      "regionIstatCode": "01",
      "provinceIstatCode": "201",
      "name": "Settimo Vittone",
      "codeCatastale": "I702",
      "legacyIstatCode107": "001266",
      "centroidLat": 45.567469,
      "centroidLng": 7.856503
    },
    {
      "istatCode": "001267",
      "regionIstatCode": "01",
      "provinceIstatCode": "201",
      "name": "Sparone",
      "codeCatastale": "I886",
      "legacyIstatCode107": "001267",
      "centroidLat": 45.408834,
      "centroidLng": 7.531541
    },
    {
      "istatCode": "001268",
      "regionIstatCode": "01",
      "provinceIstatCode": "201",
      "name": "Strambinello",
      "codeCatastale": "I969",
      "legacyIstatCode107": "001268",
      "centroidLat": 45.417923,
      "centroidLng": 7.767212
    },
    {
      "istatCode": "001269",
      "regionIstatCode": "01",
      "provinceIstatCode": "201",
      "name": "Strambino",
      "codeCatastale": "I970",
      "legacyIstatCode107": "001269",
      "centroidLat": 45.383402,
      "centroidLng": 7.903263
    },
    {
      "istatCode": "001270",
      "regionIstatCode": "01",
      "provinceIstatCode": "201",
      "name": "Susa",
      "codeCatastale": "L013",
      "legacyIstatCode107": "001270",
      "centroidLat": 45.135032,
      "centroidLng": 7.077111
    },
    {
      "istatCode": "001271",
      "regionIstatCode": "01",
      "provinceIstatCode": "201",
      "name": "Tavagnasco",
      "codeCatastale": "L066",
      "legacyIstatCode107": "001271",
      "centroidLat": 45.541599,
      "centroidLng": 7.806277
    },
    {
      "istatCode": "001272",
      "regionIstatCode": "01",
      "provinceIstatCode": "201",
      "name": "Torino",
      "codeCatastale": "L219",
      "legacyIstatCode107": "001272",
      "centroidLat": 45.071832,
      "centroidLng": 7.678007
    },
    {
      "istatCode": "001273",
      "regionIstatCode": "01",
      "provinceIstatCode": "201",
      "name": "Torrazza Piemonte",
      "codeCatastale": "L238",
      "legacyIstatCode107": "001273",
      "centroidLat": 45.218538,
      "centroidLng": 7.978785
    },
    {
      "istatCode": "001274",
      "regionIstatCode": "01",
      "provinceIstatCode": "201",
      "name": "Torre Canavese",
      "codeCatastale": "L247",
      "legacyIstatCode107": "001274",
      "centroidLat": 45.398344,
      "centroidLng": 7.762611
    },
    {
      "istatCode": "001275",
      "regionIstatCode": "01",
      "provinceIstatCode": "201",
      "name": "Torre Pellice",
      "codeCatastale": "L277",
      "legacyIstatCode107": "001275",
      "centroidLat": 44.824634,
      "centroidLng": 7.195578
    },
    {
      "istatCode": "001276",
      "regionIstatCode": "01",
      "provinceIstatCode": "201",
      "name": "Trana",
      "codeCatastale": "L327",
      "legacyIstatCode107": "001276",
      "centroidLat": 45.02931,
      "centroidLng": 7.405227
    },
    {
      "istatCode": "001278",
      "regionIstatCode": "01",
      "provinceIstatCode": "201",
      "name": "Traversella",
      "codeCatastale": "L345",
      "legacyIstatCode107": "001278",
      "centroidLat": 45.527766,
      "centroidLng": 7.696067
    },
    {
      "istatCode": "001279",
      "regionIstatCode": "01",
      "provinceIstatCode": "201",
      "name": "Traves",
      "codeCatastale": "L340",
      "legacyIstatCode107": "001279",
      "centroidLat": 45.262366,
      "centroidLng": 7.420514
    },
    {
      "istatCode": "001280",
      "regionIstatCode": "01",
      "provinceIstatCode": "201",
      "name": "Trofarello",
      "codeCatastale": "L445",
      "legacyIstatCode107": "001280",
      "centroidLat": 44.975156,
      "centroidLng": 7.744649
    },
    {
      "istatCode": "001281",
      "regionIstatCode": "01",
      "provinceIstatCode": "201",
      "name": "Usseaux",
      "codeCatastale": "L515",
      "legacyIstatCode107": "001281",
      "centroidLat": 45.049374,
      "centroidLng": 7.008062
    },
    {
      "istatCode": "001282",
      "regionIstatCode": "01",
      "provinceIstatCode": "201",
      "name": "Usseglio",
      "codeCatastale": "L516",
      "legacyIstatCode107": "001282",
      "centroidLat": 45.227884,
      "centroidLng": 7.170519
    },
    {
      "istatCode": "001283",
      "regionIstatCode": "01",
      "provinceIstatCode": "201",
      "name": "Vaie",
      "codeCatastale": "L538",
      "legacyIstatCode107": "001283",
      "centroidLat": 45.095578,
      "centroidLng": 7.294042
    },
    {
      "istatCode": "001284",
      "regionIstatCode": "01",
      "provinceIstatCode": "201",
      "name": "Val della Torre",
      "codeCatastale": "L555",
      "legacyIstatCode107": "001284",
      "centroidLat": 45.154141,
      "centroidLng": 7.447415
    },
    {
      "istatCode": "001285",
      "regionIstatCode": "01",
      "provinceIstatCode": "201",
      "name": "Valgioie",
      "codeCatastale": "L578",
      "legacyIstatCode107": "001285",
      "centroidLat": 45.076165,
      "centroidLng": 7.333874
    },
    {
      "istatCode": "001286",
      "regionIstatCode": "01",
      "provinceIstatCode": "201",
      "name": "Vallo Torinese",
      "codeCatastale": "L629",
      "legacyIstatCode107": "001286",
      "centroidLat": 45.225755,
      "centroidLng": 7.483398
    },
    {
      "istatCode": "001287",
      "regionIstatCode": "01",
      "provinceIstatCode": "201",
      "name": "Valperga",
      "codeCatastale": "L644",
      "legacyIstatCode107": "001287",
      "centroidLat": 45.36791,
      "centroidLng": 7.660157
    },
    {
      "istatCode": "001288",
      "regionIstatCode": "01",
      "provinceIstatCode": "201",
      "name": "Valprato Soana",
      "codeCatastale": "B510",
      "legacyIstatCode107": "001288",
      "centroidLat": 45.553586,
      "centroidLng": 7.541883
    },
    {
      "istatCode": "001289",
      "regionIstatCode": "01",
      "provinceIstatCode": "201",
      "name": "Varisella",
      "codeCatastale": "L685",
      "legacyIstatCode107": "001289",
      "centroidLat": 45.199303,
      "centroidLng": 7.473446
    },
    {
      "istatCode": "001290",
      "regionIstatCode": "01",
      "provinceIstatCode": "201",
      "name": "Vauda Canavese",
      "codeCatastale": "L698",
      "legacyIstatCode107": "001290",
      "centroidLat": 45.277708,
      "centroidLng": 7.63829
    },
    {
      "istatCode": "001291",
      "regionIstatCode": "01",
      "provinceIstatCode": "201",
      "name": "Venaus",
      "codeCatastale": "L726",
      "legacyIstatCode107": "001291",
      "centroidLat": 45.172577,
      "centroidLng": 6.988311
    },
    {
      "istatCode": "001292",
      "regionIstatCode": "01",
      "provinceIstatCode": "201",
      "name": "Venaria Reale",
      "codeCatastale": "L727",
      "legacyIstatCode107": "001292",
      "centroidLat": 45.140903,
      "centroidLng": 7.618981
    },
    {
      "istatCode": "001293",
      "regionIstatCode": "01",
      "provinceIstatCode": "201",
      "name": "Verolengo",
      "codeCatastale": "L779",
      "legacyIstatCode107": "001293",
      "centroidLat": 45.197783,
      "centroidLng": 7.985145
    },